{
	"type": "FeatureCollection",
	"features": [{
		"id": 1763,
		"type": "Feature",
		"geometry": {
			"type": "Point",
			"coordinates": [14.271079, 50.106213]
		},
		"properties": {
			"name": "EveryDay fitness",
			"icon_name": "mix_aktivit",
			"recommended": false,
			"is_new": false
		}
	}, {
		"id": 2082,
		"type": "Feature",
		"geometry": {
			"type": "Point",
			"coordinates": [14.8564036, 50.0717389]
		},
		"properties": {
			"name": "Infinity fitness",
			"icon_name": "mix_aktivit",
			"recommended": false,
			"is_new": false
		}
	}, {
		"id": 1801,
		"type": "Feature",
		"geometry": {
			"type": "Point",
			"coordinates": [14.4531792, 50.0685867]
		},
		"properties": {
			"name": "Power trénink Vršovice",
			"icon_name": "skupinove_a_tanecni_lekce",
			"recommended": false,
			"is_new": false
		}
	}, {
		"id": 1802,
		"type": "Feature",
		"geometry": {
			"type": "Point",
			"coordinates": [14.4869461, 50.0922928]
		},
		"properties": {
			"name": "Power trénink Jarov",
			"icon_name": "skupinove_a_tanecni_lekce",
			"recommended": false,
			"is_new": false
		}
	}, {
		"id": 2112,
		"type": "Feature",
		"geometry": {
			"type": "Point",
			"coordinates": [15.0430228, 50.7574461]
		},
		"properties": {
			"name": "Berka Fight Centrum",
			"icon_name": "skupinove_a_tanecni_lekce",
			"recommended": false,
			"is_new": true
		}
	}, {
		"id": 651,
		"type": "Feature",
		"geometry": {
			"type": "Point",
			"coordinates": [14.4902753, 50.0312078]
		},
		"properties": {
			"name": "Saunia – Centrum Chodov",
			"icon_name": "wellness_a_relax",
			"recommended": false,
			"is_new": false
		}
	}, {
		"id": 652,
		"type": "Feature",
		"geometry": {
			"type": "Point",
			"coordinates": [15.0562642, 50.7656108]
		},
		"properties": {
			"name": "Saunia – Forum Liberec",
			"icon_name": "wellness_a_relax",
			"recommended": false,
			"is_new": false
		}
	}, {
		"id": 653,
		"type": "Feature",
		"geometry": {
			"type": "Point",
			"coordinates": [14.583266, 50.109625]
		},
		"properties": {
			"name": "Saunia – Centrum Černý Most",
			"icon_name": "wellness_a_relax",
			"recommended": false,
			"is_new": false
		}
	}, {
		"id": 2033,
		"type": "Feature",
		"geometry": {
			"type": "Point",
			"coordinates": [14.4084228, 50.0728747]
		},
		"properties": {
			"name": "Power Trénink Anděl",
			"icon_name": "skupinove_a_tanecni_lekce",
			"recommended": false,
			"is_new": false
		}
	}, {
		"id": 748,
		"type": "Feature",
		"geometry": {
			"type": "Point",
			"coordinates": [14.353745, 50.047605]
		},
		"properties": {
			"name": "Saunia - Galerie Butovice",
			"icon_name": "wellness_a_relax",
			"recommended": false,
			"is_new": false
		}
	}, {
		"id": 1273,
		"type": "Feature",
		"geometry": {
			"type": "Point",
			"coordinates": [14.451849, 50.105908]
		},
		"properties": {
			"name": "Solná jeskyně Mineral",
			"icon_name": "wellness_a_relax",
			"recommended": false,
			"is_new": true
		}
	}, {
		"id": 2100,
		"type": "Feature",
		"geometry": {
			"type": "Point",
			"coordinates": [18.0012706, 49.5903989]
		},
		"properties": {
			"name": "Zimní stadion Nový Jičín",
			"icon_name": "sezonni_a_ostatni_aktivity",
			"recommended": false,
			"is_new": true
		}
	}, {
		"id": 2115,
		"type": "Feature",
		"geometry": {
			"type": "Point",
			"coordinates": [14.3190342, 49.9596111]
		},
		"properties": {
			"name": "Zimní stadion Černošice",
			"icon_name": "sezonni_a_ostatni_aktivity",
			"recommended": false,
			"is_new": true
		}
	}, {
		"id": 2092,
		"type": "Feature",
		"geometry": {
			"type": "Point",
			"coordinates": [14.707022, 49.347808]
		},
		"properties": {
			"name": "Sokolovna Planá nad Lužnicí",
			"icon_name": "mix_aktivit",
			"recommended": false,
			"is_new": true
		}
	}, {
		"id": 2064,
		"type": "Feature",
		"geometry": {
			"type": "Point",
			"coordinates": [14.009515, 50.66751]
		},
		"properties": {
			"name": "Plavecký areál Klíše",
			"icon_name": "mix_aktivit",
			"recommended": false,
			"is_new": true
		}
	}, {
		"id": 2101,
		"type": "Feature",
		"geometry": {
			"type": "Point",
			"coordinates": [18.2867861, 49.844355]
		},
		"properties": {
			"name": "Taneční studio Circus! Ostrava",
			"icon_name": "skupinove_a_tanecni_lekce",
			"recommended": false,
			"is_new": true
		}
	}, {
		"id": 2117,
		"type": "Feature",
		"geometry": {
			"type": "Point",
			"coordinates": [14.457868, 50.091973]
		},
		"properties": {
			"name": "Boutique Gym",
			"icon_name": "posilovny_a_silove_treninky",
			"recommended": false,
			"is_new": true
		}
	}, {
		"id": 2107,
		"type": "Feature",
		"geometry": {
			"type": "Point",
			"coordinates": [15.8058036, 50.2188369]
		},
		"properties": {
			"name": "AREPO - Areál Pohybu",
			"icon_name": "mix_aktivit",
			"recommended": false,
			"is_new": true
		}
	}, {
		"id": 2108,
		"type": "Feature",
		"geometry": {
			"type": "Point",
			"coordinates": [16.6068003, 49.1974317]
		},
		"properties": {
			"name": "Bruslák pod Joštem",
			"icon_name": "sezonni_a_ostatni_aktivity",
			"recommended": false,
			"is_new": true
		}
	}, {
		"id": 2109,
		"type": "Feature",
		"geometry": {
			"type": "Point",
			"coordinates": [12.6530531, 49.8010594]
		},
		"properties": {
			"name": "Kings Gym u Jannyho",
			"icon_name": "posilovny_a_silove_treninky",
			"recommended": false,
			"is_new": true
		}
	}, {
		"id": 2118,
		"type": "Feature",
		"geometry": {
			"type": "Point",
			"coordinates": [14.3961464, 50.0669994]
		},
		"properties": {
			"name": "Zimní stadion Nikolajka",
			"icon_name": "sezonni_a_ostatni_aktivity",
			"recommended": false,
			"is_new": true
		}
	}, {
		"id": 2113,
		"type": "Feature",
		"geometry": {
			"type": "Point",
			"coordinates": [18.2510147, 49.8296128]
		},
		"properties": {
			"name": "Dance Studio Like",
			"icon_name": "skupinove_a_tanecni_lekce",
			"recommended": false,
			"is_new": true
		}
	}, {
		"id": 2105,
		"type": "Feature",
		"geometry": {
			"type": "Point",
			"coordinates": [14.5769697, 50.1065028]
		},
		"properties": {
			"name": "Idealfitness",
			"icon_name": "posilovny_a_silove_treninky",
			"recommended": false,
			"is_new": true
		}
	}, {
		"id": 2116,
		"type": "Feature",
		"geometry": {
			"type": "Point",
			"coordinates": [18.2926872, 49.8022]
		},
		"properties": {
			"name": "UM PARKOUR PARK",
			"icon_name": "skupinove_a_tanecni_lekce",
			"recommended": false,
			"is_new": true
		}
	}, {
		"id": 2119,
		"type": "Feature",
		"geometry": {
			"type": "Point",
			"coordinates": [15.1161664, 50.143705]
		},
		"properties": {
			"name": "Gym24",
			"icon_name": "mix_aktivit",
			"recommended": false,
			"is_new": true
		}
	}, {
		"id": 2104,
		"type": "Feature",
		"geometry": {
			"type": "Point",
			"coordinates": [16.6117953, 49.9129092]
		},
		"properties": {
			"name": "Fitness Studio BodyClinic",
			"icon_name": "posilovny_a_silove_treninky",
			"recommended": false,
			"is_new": true
		}
	}, {
		"id": 1730,
		"type": "Feature",
		"geometry": {
			"type": "Point",
			"coordinates": [14.3443711, 50.0472364]
		},
		"properties": {
			"name": "Fitladyclub - Stodůlky",
			"icon_name": "mix_aktivit",
			"recommended": false,
			"is_new": false
		}
	}, {
		"id": 393,
		"type": "Feature",
		"geometry": {
			"type": "Point",
			"coordinates": [12.9914592, 50.0555997]
		},
		"properties": {
			"name": "Fitko Toužim",
			"icon_name": "posilovny_a_silove_treninky",
			"recommended": false,
			"is_new": false
		}
	}, {
		"id": 724,
		"type": "Feature",
		"geometry": {
			"type": "Point",
			"coordinates": [14.456528, 50.09302]
		},
		"properties": {
			"name": "Yoga Karlín",
			"icon_name": "joga_a_zdravotni_cviceni",
			"recommended": false,
			"is_new": false
		}
	}, {
		"id": 1045,
		"type": "Feature",
		"geometry": {
			"type": "Point",
			"coordinates": [16.664769, 49.485223]
		},
		"properties": {
			"name": "Městské lázně Boskovice",
			"icon_name": "bazeny_a_vodni_sporty",
			"recommended": false,
			"is_new": false
		}
	}, {
		"id": 2021,
		"type": "Feature",
		"geometry": {
			"type": "Point",
			"coordinates": [15.811076, 50.207086]
		},
		"properties": {
			"name": "Good Luck Gym",
			"icon_name": "skupinove_a_tanecni_lekce",
			"recommended": false,
			"is_new": false
		}
	}, {
		"id": 1508,
		"type": "Feature",
		"geometry": {
			"type": "Point",
			"coordinates": [14.002545, 49.678705]
		},
		"properties": {
			"name": "Afitness Příbram",
			"icon_name": "mix_aktivit",
			"recommended": false,
			"is_new": false
		}
	}, {
		"id": 1204,
		"type": "Feature",
		"geometry": {
			"type": "Point",
			"coordinates": [14.342548, 50.098039]
		},
		"properties": {
			"name": "Tenis Servis P&Š (Areál SK Aritma)",
			"icon_name": "raketove_a_micove_sporty",
			"recommended": false,
			"is_new": false
		}
	}, {
		"id": 100,
		"type": "Feature",
		"geometry": {
			"type": "Point",
			"coordinates": [14.4936981, 50.0823328]
		},
		"properties": {
			"name": "Fitness Malešice - Sunny Land",
			"icon_name": "posilovny_a_silove_treninky",
			"recommended": false,
			"is_new": false
		}
	}, {
		"id": 886,
		"type": "Feature",
		"geometry": {
			"type": "Point",
			"coordinates": [14.331885, 50.043818]
		},
		"properties": {
			"name": "Fitness Lužiny",
			"icon_name": "posilovny_a_silove_treninky",
			"recommended": false,
			"is_new": false
		}
	}, {
		"id": 170,
		"type": "Feature",
		"geometry": {
			"type": "Point",
			"coordinates": [14.4564692, 48.9896797]
		},
		"properties": {
			"name": "FITNESS POUZAR I.",
			"icon_name": "mix_aktivit",
			"recommended": false,
			"is_new": false
		}
	}, {
		"id": 262,
		"type": "Feature",
		"geometry": {
			"type": "Point",
			"coordinates": [14.6849831, 49.3865575]
		},
		"properties": {
			"name": "WallClub",
			"icon_name": "lezecke_steny",
			"recommended": false,
			"is_new": false
		}
	}, {
		"id": 721,
		"type": "Feature",
		"geometry": {
			"type": "Point",
			"coordinates": [16.587519, 49.218724]
		},
		"properties": {
			"name": "Yoga House",
			"icon_name": "joga_a_zdravotni_cviceni",
			"recommended": false,
			"is_new": false
		}
	}, {
		"id": 502,
		"type": "Feature",
		"geometry": {
			"type": "Point",
			"coordinates": [16.5975647, 49.1732142]
		},
		"properties": {
			"name": "MadMan Crossfit",
			"icon_name": "posilovny_a_silove_treninky",
			"recommended": false,
			"is_new": false
		}
	}, {
		"id": 516,
		"type": "Feature",
		"geometry": {
			"type": "Point",
			"coordinates": [13.9115642, 49.2619689]
		},
		"properties": {
			"name": "STARZ Strakonice - Plavecký areál venkovní",
			"icon_name": "bazeny_a_vodni_sporty",
			"recommended": false,
			"is_new": false
		}
	}, {
		"id": 568,
		"type": "Feature",
		"geometry": {
			"type": "Point",
			"coordinates": [16.6057172, 49.2092403]
		},
		"properties": {
			"name": "MOJA Tenis",
			"icon_name": "raketove_a_micove_sporty",
			"recommended": false,
			"is_new": false
		}
	}, {
		"id": 773,
		"type": "Feature",
		"geometry": {
			"type": "Point",
			"coordinates": [14.638077, 49.922857]
		},
		"properties": {
			"name": "SOFIF",
			"icon_name": "posilovny_a_silove_treninky",
			"recommended": false,
			"is_new": false
		}
	}, {
		"id": 880,
		"type": "Feature",
		"geometry": {
			"type": "Point",
			"coordinates": [15.167543, 50.721183]
		},
		"properties": {
			"name": "Městský zimní stadion",
			"icon_name": "sezonni_a_ostatni_aktivity",
			"recommended": false,
			"is_new": false
		}
	}, {
		"id": 553,
		"type": "Feature",
		"geometry": {
			"type": "Point",
			"coordinates": [14.4014636, 50.0260608]
		},
		"properties": {
			"name": "GOLF CLUB HODKOVIČKY",
			"icon_name": "sezonni_a_ostatni_aktivity",
			"recommended": false,
			"is_new": false
		}
	}, {
		"id": 967,
		"type": "Feature",
		"geometry": {
			"type": "Point",
			"coordinates": [14.345597, 50.069014]
		},
		"properties": {
			"name": "Koupaliště Motol",
			"icon_name": "bazeny_a_vodni_sporty",
			"recommended": false,
			"is_new": false
		}
	}, {
		"id": 1760,
		"type": "Feature",
		"geometry": {
			"type": "Point",
			"coordinates": [14.006933, 50.195261]
		},
		"properties": {
			"name": "TK Moja Ledce",
			"icon_name": "raketove_a_micove_sporty",
			"recommended": false,
			"is_new": false
		}
	}, {
		"id": 1011,
		"type": "Feature",
		"geometry": {
			"type": "Point",
			"coordinates": [16.639762, 49.193638]
		},
		"properties": {
			"name": "AFIT fitness centrum",
			"icon_name": "mix_aktivit",
			"recommended": false,
			"is_new": false
		}
	}, {
		"id": 1043,
		"type": "Feature",
		"geometry": {
			"type": "Point",
			"coordinates": [16.664769, 49.485223]
		},
		"properties": {
			"name": "Sauna Boskovice",
			"icon_name": "wellness_a_relax",
			"recommended": false,
			"is_new": false
		}
	}, {
		"id": 1971,
		"type": "Feature",
		"geometry": {
			"type": "Point",
			"coordinates": [14.505025, 50.037558]
		},
		"properties": {
			"name": "Solná jeskyně VLNA",
			"icon_name": "wellness_a_relax",
			"recommended": false,
			"is_new": false
		}
	}, {
		"id": 1144,
		"type": "Feature",
		"geometry": {
			"type": "Point",
			"coordinates": [15.050607, 50.763386]
		},
		"properties": {
			"name": "Fit-point",
			"icon_name": "mix_aktivit",
			"recommended": false,
			"is_new": false
		}
	}, {
		"id": 1718,
		"type": "Feature",
		"geometry": {
			"type": "Point",
			"coordinates": [14.3650453, 50.0965172]
		},
		"properties": {
			"name": "Cordeus",
			"icon_name": "mix_aktivit",
			"recommended": false,
			"is_new": false
		}
	}, {
		"id": 1795,
		"type": "Feature",
		"geometry": {
			"type": "Point",
			"coordinates": [14.2545911, 50.4320794]
		},
		"properties": {
			"name": "Kangoo Jumping Vědomice",
			"icon_name": "skupinove_a_tanecni_lekce",
			"recommended": false,
			"is_new": false
		}
	}, {
		"id": 1419,
		"type": "Feature",
		"geometry": {
			"type": "Point",
			"coordinates": [16.96447, 49.970049]
		},
		"properties": {
			"name": "Fitness Kotelna",
			"icon_name": "mix_aktivit",
			"recommended": false,
			"is_new": false
		}
	}, {
		"id": 1723,
		"type": "Feature",
		"geometry": {
			"type": "Point",
			"coordinates": [13.445918, 50.493334]
		},
		"properties": {
			"name": "Lezecká aréna Jirkov",
			"icon_name": "lezecke_steny",
			"recommended": false,
			"is_new": false
		}
	}, {
		"id": 1797,
		"type": "Feature",
		"geometry": {
			"type": "Point",
			"coordinates": [14.5132967, 50.0299447]
		},
		"properties": {
			"name": "Sportovní areál Mikulovka",
			"icon_name": "raketove_a_micove_sporty",
			"recommended": false,
			"is_new": false
		}
	}, {
		"id": 1590,
		"type": "Feature",
		"geometry": {
			"type": "Point",
			"coordinates": [15.1765636, 50.7413717]
		},
		"properties": {
			"name": "TK Břízky, z.s.",
			"icon_name": "raketove_a_micove_sporty",
			"recommended": false,
			"is_new": false
		}
	}, {
		"id": 1578,
		"type": "Feature",
		"geometry": {
			"type": "Point",
			"coordinates": [16.6124028, 49.1916181]
		},
		"properties": {
			"name": "Saunia – OC Letmo Brno",
			"icon_name": "wellness_a_relax",
			"recommended": false,
			"is_new": false
		}
	}, {
		"id": 1503,
		"type": "Feature",
		"geometry": {
			"type": "Point",
			"coordinates": [14.432053, 50.062787]
		},
		"properties": {
			"name": "Apollo Day Spa (Corinthia Hotel Praha)",
			"icon_name": "mix_aktivit",
			"recommended": false,
			"is_new": false
		}
	}, {
		"id": 719,
		"type": "Feature",
		"geometry": {
			"type": "Point",
			"coordinates": [16.568837, 49.179436]
		},
		"properties": {
			"name": "Campea FITZONE",
			"icon_name": "mix_aktivit",
			"recommended": false,
			"is_new": false
		}
	}, {
		"id": 764,
		"type": "Feature",
		"geometry": {
			"type": "Point",
			"coordinates": [15.197698, 50.025121]
		},
		"properties": {
			"name": "La Danza – taneční a pohybové studio",
			"icon_name": "mix_aktivit",
			"recommended": false,
			"is_new": false
		}
	}, {
		"id": 1990,
		"type": "Feature",
		"geometry": {
			"type": "Point",
			"coordinates": [14.4449597, 50.0485336]
		},
		"properties": {
			"name": "Studio Haniel",
			"icon_name": "joga_a_zdravotni_cviceni",
			"recommended": false,
			"is_new": false
		}
	}, {
		"id": 1379,
		"type": "Feature",
		"geometry": {
			"type": "Point",
			"coordinates": [14.425357, 50.078058]
		},
		"properties": {
			"name": "Hotel Amarilis****",
			"icon_name": "wellness_a_relax",
			"recommended": false,
			"is_new": false
		}
	}, {
		"id": 1538,
		"type": "Feature",
		"geometry": {
			"type": "Point",
			"coordinates": [18.5433281, 49.8595956]
		},
		"properties": {
			"name": "TRX Reichi",
			"icon_name": "skupinove_a_tanecni_lekce",
			"recommended": false,
			"is_new": false
		}
	}, {
		"id": 1961,
		"type": "Feature",
		"geometry": {
			"type": "Point",
			"coordinates": [14.2429694, 50.4259519]
		},
		"properties": {
			"name": "A-fitness",
			"icon_name": "mix_aktivit",
			"recommended": false,
			"is_new": false
		}
	}, {
		"id": 1,
		"type": "Feature",
		"geometry": {
			"type": "Point",
			"coordinates": [18.0902361, 49.9028942]
		},
		"properties": {
			"name": "SportCentrum na Hřišti",
			"icon_name": "mix_aktivit",
			"recommended": false,
			"is_new": false
		}
	}, {
		"id": 1674,
		"type": "Feature",
		"geometry": {
			"type": "Point",
			"coordinates": [15.2251931, 49.4246811]
		},
		"properties": {
			"name": "Bazén Pelhřimov",
			"icon_name": "bazeny_a_vodni_sporty",
			"recommended": false,
			"is_new": false
		}
	}, {
		"id": 739,
		"type": "Feature",
		"geometry": {
			"type": "Point",
			"coordinates": [14.430663, 50.073088]
		},
		"properties": {
			"name": "Mangala Yoga",
			"icon_name": "joga_a_zdravotni_cviceni",
			"recommended": false,
			"is_new": false
		}
	}, {
		"id": 402,
		"type": "Feature",
		"geometry": {
			"type": "Point",
			"coordinates": [18.2024133, 49.5518864]
		},
		"properties": {
			"name": "Městská sauna Frenštát pod Radhoštěm",
			"icon_name": "wellness_a_relax",
			"recommended": false,
			"is_new": false
		}
	}, {
		"id": 1793,
		"type": "Feature",
		"geometry": {
			"type": "Point",
			"coordinates": [14.513185, 50.2562483]
		},
		"properties": {
			"name": "Sport Club Olympia",
			"icon_name": "posilovny_a_silove_treninky",
			"recommended": false,
			"is_new": false
		}
	}, {
		"id": 576,
		"type": "Feature",
		"geometry": {
			"type": "Point",
			"coordinates": [18.2614628, 49.8664183]
		},
		"properties": {
			"name": "FAMILY GYM",
			"icon_name": "skupinove_a_tanecni_lekce",
			"recommended": false,
			"is_new": false
		}
	}, {
		"id": 1115,
		"type": "Feature",
		"geometry": {
			"type": "Point",
			"coordinates": [14.668045, 49.991541]
		},
		"properties": {
			"name": "Fit&Relax Lady",
			"icon_name": "mix_aktivit",
			"recommended": false,
			"is_new": false
		}
	}, {
		"id": 114,
		"type": "Feature",
		"geometry": {
			"type": "Point",
			"coordinates": [14.0809658, 50.1400219]
		},
		"properties": {
			"name": "Studio 108",
			"icon_name": "joga_a_zdravotni_cviceni",
			"recommended": false,
			"is_new": false
		}
	}, {
		"id": 1174,
		"type": "Feature",
		"geometry": {
			"type": "Point",
			"coordinates": [18.5385, 49.855225]
		},
		"properties": {
			"name": "Zimní stadion (STaRS)",
			"icon_name": "sezonni_a_ostatni_aktivity",
			"recommended": false,
			"is_new": false
		}
	}, {
		"id": 349,
		"type": "Feature",
		"geometry": {
			"type": "Point",
			"coordinates": [15.7610453, 50.0377408]
		},
		"properties": {
			"name": "Sauna Pardubice",
			"icon_name": "wellness_a_relax",
			"recommended": false,
			"is_new": false
		}
	}, {
		"id": 2099,
		"type": "Feature",
		"geometry": {
			"type": "Point",
			"coordinates": [14.6833686, 49.3894111]
		},
		"properties": {
			"name": "Fitness Centrum MAXIMA",
			"icon_name": "posilovny_a_silove_treninky",
			"recommended": false,
			"is_new": true
		}
	}, {
		"id": 1693,
		"type": "Feature",
		"geometry": {
			"type": "Point",
			"coordinates": [14.266156, 50.429247]
		},
		"properties": {
			"name": "Sport hotel BK Pod Lipou",
			"icon_name": "mix_aktivit",
			"recommended": false,
			"is_new": false
		}
	}, {
		"id": 1332,
		"type": "Feature",
		"geometry": {
			"type": "Point",
			"coordinates": [15.805231, 50.044994]
		},
		"properties": {
			"name": "Macak´s gym",
			"icon_name": "skupinove_a_tanecni_lekce",
			"recommended": false,
			"is_new": false
		}
	}, {
		"id": 1842,
		"type": "Feature",
		"geometry": {
			"type": "Point",
			"coordinates": [18.6763789, 49.66985]
		},
		"properties": {
			"name": "Gajánek – dětská herna",
			"icon_name": "rodice_s_detmi",
			"recommended": false,
			"is_new": false
		}
	}, {
		"id": 772,
		"type": "Feature",
		"geometry": {
			"type": "Point",
			"coordinates": [14.5401661, 50.6815317]
		},
		"properties": {
			"name": "Sportareál – fitness",
			"icon_name": "mix_aktivit",
			"recommended": false,
			"is_new": false
		}
	}, {
		"id": 1427,
		"type": "Feature",
		"geometry": {
			"type": "Point",
			"coordinates": [16.555256, 49.175952]
		},
		"properties": {
			"name": "Fitness centrum Kameňák",
			"icon_name": "mix_aktivit",
			"recommended": false,
			"is_new": false
		}
	}, {
		"id": 2049,
		"type": "Feature",
		"geometry": {
			"type": "Point",
			"coordinates": [14.420609, 50.067966]
		},
		"properties": {
			"name": "Inner Vibe",
			"icon_name": "mix_aktivit",
			"recommended": false,
			"is_new": false
		}
	}, {
		"id": 1320,
		"type": "Feature",
		"geometry": {
			"type": "Point",
			"coordinates": [14.464324, 50.044844]
		},
		"properties": {
			"name": "Om Yoga Studio",
			"icon_name": "mix_aktivit",
			"recommended": false,
			"is_new": false
		}
	}, {
		"id": 2024,
		"type": "Feature",
		"geometry": {
			"type": "Point",
			"coordinates": [14.3588256, 49.9792594]
		},
		"properties": {
			"name": "Bazén Radotín",
			"icon_name": "bazeny_a_vodni_sporty",
			"recommended": false,
			"is_new": false
		}
	}, {
		"id": 1190,
		"type": "Feature",
		"geometry": {
			"type": "Point",
			"coordinates": [13.659967, 50.491725]
		},
		"properties": {
			"name": "Tornádo Sport Most",
			"icon_name": "mix_aktivit",
			"recommended": false,
			"is_new": false
		}
	}, {
		"id": 1192,
		"type": "Feature",
		"geometry": {
			"type": "Point",
			"coordinates": [14.53171, 50.058935]
		},
		"properties": {
			"name": "TK Neridé",
			"icon_name": "mix_aktivit",
			"recommended": false,
			"is_new": false
		}
	}, {
		"id": 1396,
		"type": "Feature",
		"geometry": {
			"type": "Point",
			"coordinates": [14.485871, 50.165295]
		},
		"properties": {
			"name": "fitPULS s.r.o.-sportovní a dětské centrum",
			"icon_name": "mix_aktivit",
			"recommended": false,
			"is_new": false
		}
	}, {
		"id": 559,
		"type": "Feature",
		"geometry": {
			"type": "Point",
			"coordinates": [15.610125, 50.6184406]
		},
		"properties": {
			"name": "Fitness Spektrum",
			"icon_name": "mix_aktivit",
			"recommended": false,
			"is_new": false
		}
	}, {
		"id": 2023,
		"type": "Feature",
		"geometry": {
			"type": "Point",
			"coordinates": [14.4436883, 50.0910058]
		},
		"properties": {
			"name": "Poletime Studio",
			"icon_name": "mix_aktivit",
			"recommended": false,
			"is_new": false
		}
	}, {
		"id": 1370,
		"type": "Feature",
		"geometry": {
			"type": "Point",
			"coordinates": [14.48339, 50.101494]
		},
		"properties": {
			"name": "Infinit - Wellness Hotel Step",
			"icon_name": "mix_aktivit",
			"recommended": false,
			"is_new": false
		}
	}, {
		"id": 988,
		"type": "Feature",
		"geometry": {
			"type": "Point",
			"coordinates": [13.823539, 50.640679]
		},
		"properties": {
			"name": "Fitness Fontána",
			"icon_name": "posilovny_a_silove_treninky",
			"recommended": false,
			"is_new": false
		}
	}, {
		"id": 1739,
		"type": "Feature",
		"geometry": {
			"type": "Point",
			"coordinates": [17.8854781, 49.9521572]
		},
		"properties": {
			"name": "Městské koupaliště Opava",
			"icon_name": "bazeny_a_vodni_sporty",
			"recommended": false,
			"is_new": false
		}
	}, {
		"id": 363,
		"type": "Feature",
		"geometry": {
			"type": "Point",
			"coordinates": [15.8126053, 49.9151856]
		},
		"properties": {
			"name": "Sportovní kluby Spartak Slatiňany, z.s.",
			"icon_name": "raketove_a_micove_sporty",
			"recommended": false,
			"is_new": false
		}
	}, {
		"id": 67,
		"type": "Feature",
		"geometry": {
			"type": "Point",
			"coordinates": [14.5986756, 50.0757196]
		},
		"properties": {
			"name": "Fit s Věrou 2",
			"icon_name": "joga_a_zdravotni_cviceni",
			"recommended": false,
			"is_new": false
		}
	}, {
		"id": 197,
		"type": "Feature",
		"geometry": {
			"type": "Point",
			"coordinates": [14.1237744, 50.5454067]
		},
		"properties": {
			"name": "Posilovna Družba",
			"icon_name": "posilovny_a_silove_treninky",
			"recommended": false,
			"is_new": false
		}
	}, {
		"id": 176,
		"type": "Feature",
		"geometry": {
			"type": "Point",
			"coordinates": [14.4139042, 50.0567914]
		},
		"properties": {
			"name": "Areál Císařská louka",
			"icon_name": "raketove_a_micove_sporty",
			"recommended": false,
			"is_new": false
		}
	}, {
		"id": 329,
		"type": "Feature",
		"geometry": {
			"type": "Point",
			"coordinates": [14.7512461, 49.0023778]
		},
		"properties": {
			"name": "Lázně Aurora",
			"icon_name": "mix_aktivit",
			"recommended": false,
			"is_new": false
		}
	}, {
		"id": 294,
		"type": "Feature",
		"geometry": {
			"type": "Point",
			"coordinates": [14.4874658, 50.0539672]
		},
		"properties": {
			"name": "Bowling Na Ovčíně",
			"icon_name": "sezonni_a_ostatni_aktivity",
			"recommended": false,
			"is_new": false
		}
	}, {
		"id": 375,
		"type": "Feature",
		"geometry": {
			"type": "Point",
			"coordinates": [14.661933, 49.988586]
		},
		"properties": {
			"name": "ICE ARENA FITNESS",
			"icon_name": "posilovny_a_silove_treninky",
			"recommended": false,
			"is_new": false
		}
	}, {
		"id": 414,
		"type": "Feature",
		"geometry": {
			"type": "Point",
			"coordinates": [15.1574519, 50.5879481]
		},
		"properties": {
			"name": "Bodysport",
			"icon_name": "mix_aktivit",
			"recommended": false,
			"is_new": false
		}
	}, {
		"id": 182,
		"type": "Feature",
		"geometry": {
			"type": "Point",
			"coordinates": [15.1681792, 50.7331692]
		},
		"properties": {
			"name": "Extrifit Gym",
			"icon_name": "mix_aktivit",
			"recommended": false,
			"is_new": false
		}
	}, {
		"id": 2004,
		"type": "Feature",
		"geometry": {
			"type": "Point",
			"coordinates": [17.359934, 49.657425]
		},
		"properties": {
			"name": "Hotel S-port Véska",
			"icon_name": "mix_aktivit",
			"recommended": false,
			"is_new": false
		}
	}, {
		"id": 522,
		"type": "Feature",
		"geometry": {
			"type": "Point",
			"coordinates": [13.9142642, 49.2628383]
		},
		"properties": {
			"name": "Fitness club F2 - Na Křemelce",
			"icon_name": "posilovny_a_silove_treninky",
			"recommended": false,
			"is_new": false
		}
	}, {
		"id": 1796,
		"type": "Feature",
		"geometry": {
			"type": "Point",
			"coordinates": [14.0376464, 50.4083114]
		},
		"properties": {
			"name": "Kangoo Jumping Libochovice",
			"icon_name": "skupinove_a_tanecni_lekce",
			"recommended": false,
			"is_new": false
		}
	}, {
		"id": 864,
		"type": "Feature",
		"geometry": {
			"type": "Point",
			"coordinates": [13.596625, 49.742439]
		},
		"properties": {
			"name": "Plus Fitness",
			"icon_name": "mix_aktivit",
			"recommended": false,
			"is_new": false
		}
	}, {
		"id": 90,
		"type": "Feature",
		"geometry": {
			"type": "Point",
			"coordinates": [13.8648853, 49.8184261]
		},
		"properties": {
			"name": "Fitness centrum Neptun",
			"icon_name": "posilovny_a_silove_treninky",
			"recommended": false,
			"is_new": false
		}
	}, {
		"id": 2061,
		"type": "Feature",
		"geometry": {
			"type": "Point",
			"coordinates": [17.512645, 49.165283]
		},
		"properties": {
			"name": "Fitness Slavia Napajedla",
			"icon_name": "mix_aktivit",
			"recommended": false,
			"is_new": false
		}
	}, {
		"id": 879,
		"type": "Feature",
		"geometry": {
			"type": "Point",
			"coordinates": [16.640372, 49.202387]
		},
		"properties": {
			"name": "STAY FIT",
			"icon_name": "mix_aktivit",
			"recommended": false,
			"is_new": false
		}
	}, {
		"id": 679,
		"type": "Feature",
		"geometry": {
			"type": "Point",
			"coordinates": [15.0702433, 50.7600769]
		},
		"properties": {
			"name": "Fitness U Pešků",
			"icon_name": "posilovny_a_silove_treninky",
			"recommended": false,
			"is_new": false
		}
	}, {
		"id": 741,
		"type": "Feature",
		"geometry": {
			"type": "Point",
			"coordinates": [14.084293, 50.230889]
		},
		"properties": {
			"name": "Bodyfit GYM",
			"icon_name": "posilovny_a_silove_treninky",
			"recommended": false,
			"is_new": false
		}
	}, {
		"id": 745,
		"type": "Feature",
		"geometry": {
			"type": "Point",
			"coordinates": [17.233547, 49.589296]
		},
		"properties": {
			"name": "Eurogym fitness",
			"icon_name": "posilovny_a_silove_treninky",
			"recommended": false,
			"is_new": false
		}
	}, {
		"id": 1691,
		"type": "Feature",
		"geometry": {
			"type": "Point",
			"coordinates": [14.53297, 49.978551]
		},
		"properties": {
			"name": "Fitness Gym Zdiměřice",
			"icon_name": "posilovny_a_silove_treninky",
			"recommended": false,
			"is_new": false
		}
	}, {
		"id": 859,
		"type": "Feature",
		"geometry": {
			"type": "Point",
			"coordinates": [14.908308, 50.412461]
		},
		"properties": {
			"name": "SimplyFIT",
			"icon_name": "posilovny_a_silove_treninky",
			"recommended": false,
			"is_new": false
		}
	}, {
		"id": 1745,
		"type": "Feature",
		"geometry": {
			"type": "Point",
			"coordinates": [14.263816, 49.866709]
		},
		"properties": {
			"name": "Bron Gym",
			"icon_name": "posilovny_a_silove_treninky",
			"recommended": false,
			"is_new": false
		}
	}, {
		"id": 950,
		"type": "Feature",
		"geometry": {
			"type": "Point",
			"coordinates": [14.418006, 50.08213]
		},
		"properties": {
			"name": "Fitness Vagon",
			"icon_name": "posilovny_a_silove_treninky",
			"recommended": false,
			"is_new": false
		}
	}, {
		"id": 890,
		"type": "Feature",
		"geometry": {
			"type": "Point",
			"coordinates": [13.829336, 50.640213]
		},
		"properties": {
			"name": "Dům plný pohybu I.",
			"icon_name": "mix_aktivit",
			"recommended": false,
			"is_new": false
		}
	}, {
		"id": 964,
		"type": "Feature",
		"geometry": {
			"type": "Point",
			"coordinates": [14.435144, 50.043808]
		},
		"properties": {
			"name": "SK OAZA PRAHA",
			"icon_name": "raketove_a_micove_sporty",
			"recommended": false,
			"is_new": false
		}
	}, {
		"id": 2076,
		"type": "Feature",
		"geometry": {
			"type": "Point",
			"coordinates": [18.4534308, 49.77627]
		},
		"properties": {
			"name": "FITDREAM Havířov",
			"icon_name": "posilovny_a_silove_treninky",
			"recommended": false,
			"is_new": false
		}
	}, {
		"id": 996,
		"type": "Feature",
		"geometry": {
			"type": "Point",
			"coordinates": [13.598968, 49.747379]
		},
		"properties": {
			"name": "Plavecký bazén Rokycany",
			"icon_name": "bazeny_a_vodni_sporty",
			"recommended": false,
			"is_new": false
		}
	}, {
		"id": 997,
		"type": "Feature",
		"geometry": {
			"type": "Point",
			"coordinates": [16.484419, 49.757912]
		},
		"properties": {
			"name": "Jumping centrum Svitavy",
			"icon_name": "skupinove_a_tanecni_lekce",
			"recommended": false,
			"is_new": false
		}
	}, {
		"id": 2013,
		"type": "Feature",
		"geometry": {
			"type": "Point",
			"coordinates": [16.9745308, 49.9648533]
		},
		"properties": {
			"name": "Cvičírna Šumperk",
			"icon_name": "skupinove_a_tanecni_lekce",
			"recommended": false,
			"is_new": false
		}
	}, {
		"id": 1143,
		"type": "Feature",
		"geometry": {
			"type": "Point",
			"coordinates": [15.270202, 49.949445]
		},
		"properties": {
			"name": "Fitness centrum Kutná Hora",
			"icon_name": "posilovny_a_silove_treninky",
			"recommended": false,
			"is_new": false
		}
	}, {
		"id": 2058,
		"type": "Feature",
		"geometry": {
			"type": "Point",
			"coordinates": [12.855807, 50.23538]
		},
		"properties": {
			"name": "SportStudio Soňa",
			"icon_name": "mix_aktivit",
			"recommended": false,
			"is_new": false
		}
	}, {
		"id": 1114,
		"type": "Feature",
		"geometry": {
			"type": "Point",
			"coordinates": [17.674755, 49.399585]
		},
		"properties": {
			"name": "Squash Centrum Bystřice pod Hostýnem",
			"icon_name": "mix_aktivit",
			"recommended": false,
			"is_new": false
		}
	}, {
		"id": 1117,
		"type": "Feature",
		"geometry": {
			"type": "Point",
			"coordinates": [15.015408, 49.140691]
		},
		"properties": {
			"name": "Plavecký bazén a venkovní aquapark",
			"icon_name": "bazeny_a_vodni_sporty",
			"recommended": false,
			"is_new": false
		}
	}, {
		"id": 1976,
		"type": "Feature",
		"geometry": {
			"type": "Point",
			"coordinates": [13.4143122, 50.4619811]
		},
		"properties": {
			"name": "KULÍŠKOV – NC Chomutovka",
			"icon_name": "rodice_s_detmi",
			"recommended": false,
			"is_new": false
		}
	}, {
		"id": 1522,
		"type": "Feature",
		"geometry": {
			"type": "Point",
			"coordinates": [13.9056972, 49.8350078]
		},
		"properties": {
			"name": "U.B.F - Ultimate Buffi Fitness – 1. ZŠ Hořovice",
			"icon_name": "skupinove_a_tanecni_lekce",
			"recommended": false,
			"is_new": false
		}
	}, {
		"id": 2057,
		"type": "Feature",
		"geometry": {
			"type": "Point",
			"coordinates": [14.434703, 50.073452]
		},
		"properties": {
			"name": "YOGA & REST",
			"icon_name": "joga_a_zdravotni_cviceni",
			"recommended": false,
			"is_new": false
		}
	}, {
		"id": 1782,
		"type": "Feature",
		"geometry": {
			"type": "Point",
			"coordinates": [18.2351531, 49.8075797]
		},
		"properties": {
			"name": "Iveta Miková",
			"icon_name": "skupinove_a_tanecni_lekce",
			"recommended": false,
			"is_new": false
		}
	}, {
		"id": 2029,
		"type": "Feature",
		"geometry": {
			"type": "Point",
			"coordinates": [16.585821, 49.24869]
		},
		"properties": {
			"name": "PePe Fit",
			"icon_name": "skupinove_a_tanecni_lekce",
			"recommended": false,
			"is_new": false
		}
	}, {
		"id": 1710,
		"type": "Feature",
		"geometry": {
			"type": "Point",
			"coordinates": [14.14231, 50.515257]
		},
		"properties": {
			"name": "Golf Kotlina",
			"icon_name": "sezonni_a_ostatni_aktivity",
			"recommended": false,
			"is_new": false
		}
	}, {
		"id": 1828,
		"type": "Feature",
		"geometry": {
			"type": "Point",
			"coordinates": [14.4593231, 50.1320319]
		},
		"properties": {
			"name": "Tenis Svornost",
			"icon_name": "raketove_a_micove_sporty",
			"recommended": false,
			"is_new": false
		}
	}, {
		"id": 1964,
		"type": "Feature",
		"geometry": {
			"type": "Point",
			"coordinates": [18.2198658, 49.6980736]
		},
		"properties": {
			"name": "Bazén Brušperk",
			"icon_name": "bazeny_a_vodni_sporty",
			"recommended": false,
			"is_new": false
		}
	}, {
		"id": 113,
		"type": "Feature",
		"geometry": {
			"type": "Point",
			"coordinates": [17.4636839, 49.0598094]
		},
		"properties": {
			"name": "Bushido Gym",
			"icon_name": "mix_aktivit",
			"recommended": false,
			"is_new": false
		}
	}, {
		"id": 1871,
		"type": "Feature",
		"geometry": {
			"type": "Point",
			"coordinates": [16.3919064, 49.9813303]
		},
		"properties": {
			"name": "Sporthotel Tichá Orlice",
			"icon_name": "posilovny_a_silove_treninky",
			"recommended": false,
			"is_new": false
		}
	}, {
		"id": 1765,
		"type": "Feature",
		"geometry": {
			"type": "Point",
			"coordinates": [16.420482, 49.338995]
		},
		"properties": {
			"name": "Koupaliště Tišnov",
			"icon_name": "bazeny_a_vodni_sporty",
			"recommended": false,
			"is_new": false
		}
	}, {
		"id": 326,
		"type": "Feature",
		"geometry": {
			"type": "Point",
			"coordinates": [13.3688025, 49.7473653]
		},
		"properties": {
			"name": "Lezecké centrum V16",
			"icon_name": "lezecke_steny",
			"recommended": false,
			"is_new": false
		}
	}, {
		"id": 1465,
		"type": "Feature",
		"geometry": {
			"type": "Point",
			"coordinates": [14.438904, 50.077356]
		},
		"properties": {
			"name": "David Fitness",
			"icon_name": "mix_aktivit",
			"recommended": false,
			"is_new": false
		}
	}, {
		"id": 1764,
		"type": "Feature",
		"geometry": {
			"type": "Point",
			"coordinates": [16.631708, 48.801294]
		},
		"properties": {
			"name": "Letní koupaliště Riviéra Mikulov",
			"icon_name": "bazeny_a_vodni_sporty",
			"recommended": false,
			"is_new": false
		}
	}, {
		"id": 24,
		"type": "Feature",
		"geometry": {
			"type": "Point",
			"coordinates": [17.8762375, 49.9500725]
		},
		"properties": {
			"name": "RAKETA bowling",
			"icon_name": "sezonni_a_ostatni_aktivity",
			"recommended": false,
			"is_new": false
		}
	}, {
		"id": 1748,
		"type": "Feature",
		"geometry": {
			"type": "Point",
			"coordinates": [17.691318, 49.240575]
		},
		"properties": {
			"name": "Tenisový klub Zlín",
			"icon_name": "raketove_a_micove_sporty",
			"recommended": false,
			"is_new": false
		}
	}, {
		"id": 282,
		"type": "Feature",
		"geometry": {
			"type": "Point",
			"coordinates": [13.3698236, 49.7215861]
		},
		"properties": {
			"name": "Wolverine Gym Plzeň",
			"icon_name": "posilovny_a_silove_treninky",
			"recommended": false,
			"is_new": false
		}
	}, {
		"id": 1157,
		"type": "Feature",
		"geometry": {
			"type": "Point",
			"coordinates": [14.410973, 50.064319]
		},
		"properties": {
			"name": "Erpet golf centrum",
			"icon_name": "raketove_a_micove_sporty",
			"recommended": false,
			"is_new": false
		}
	}, {
		"id": 1166,
		"type": "Feature",
		"geometry": {
			"type": "Point",
			"coordinates": [14.425461, 50.079532]
		},
		"properties": {
			"name": "Studio PURE",
			"icon_name": "mix_aktivit",
			"recommended": false,
			"is_new": false
		}
	}, {
		"id": 2035,
		"type": "Feature",
		"geometry": {
			"type": "Point",
			"coordinates": [16.954726, 49.274063]
		},
		"properties": {
			"name": "Tenis centrum Drnovice",
			"icon_name": "raketove_a_micove_sporty",
			"recommended": false,
			"is_new": false
		}
	}, {
		"id": 617,
		"type": "Feature",
		"geometry": {
			"type": "Point",
			"coordinates": [14.1249405, 50.5501951]
		},
		"properties": {
			"name": "H.E.A.T. centrum Litoměřice",
			"icon_name": "mix_aktivit",
			"recommended": false,
			"is_new": false
		}
	}, {
		"id": 963,
		"type": "Feature",
		"geometry": {
			"type": "Point",
			"coordinates": [14.101744, 50.137072]
		},
		"properties": {
			"name": "Gym2000 Posista",
			"icon_name": "mix_aktivit",
			"recommended": false,
			"is_new": false
		}
	}, {
		"id": 977,
		"type": "Feature",
		"geometry": {
			"type": "Point",
			"coordinates": [15.119308, 50.134164]
		},
		"properties": {
			"name": "Jezero Poděbrady",
			"icon_name": "bazeny_a_vodni_sporty",
			"recommended": false,
			"is_new": false
		}
	}, {
		"id": 254,
		"type": "Feature",
		"geometry": {
			"type": "Point",
			"coordinates": [15.4828736, 49.2902469]
		},
		"properties": {
			"name": "FAN Fitness",
			"icon_name": "mix_aktivit",
			"recommended": false,
			"is_new": false
		}
	}, {
		"id": 1720,
		"type": "Feature",
		"geometry": {
			"type": "Point",
			"coordinates": [16.59377, 49.179148]
		},
		"properties": {
			"name": "Pilates Point",
			"icon_name": "joga_a_zdravotni_cviceni",
			"recommended": false,
			"is_new": false
		}
	}, {
		"id": 97,
		"type": "Feature",
		"geometry": {
			"type": "Point",
			"coordinates": [14.0764464, 49.9631336]
		},
		"properties": {
			"name": "FITNESS TYRAN",
			"icon_name": "posilovny_a_silove_treninky",
			"recommended": false,
			"is_new": false
		}
	}, {
		"id": 216,
		"type": "Feature",
		"geometry": {
			"type": "Point",
			"coordinates": [15.8209803, 50.2142656]
		},
		"properties": {
			"name": "BODYFLEX Fitness - Hradec Králové",
			"icon_name": "posilovny_a_silove_treninky",
			"recommended": false,
			"is_new": false
		}
	}, {
		"id": 1741,
		"type": "Feature",
		"geometry": {
			"type": "Point",
			"coordinates": [17.9089725, 49.93859]
		},
		"properties": {
			"name": "Městské lázně Opava - Plavecký bazén",
			"icon_name": "mix_aktivit",
			"recommended": false,
			"is_new": false
		}
	}, {
		"id": 624,
		"type": "Feature",
		"geometry": {
			"type": "Point",
			"coordinates": [16.887283, 48.7553]
		},
		"properties": {
			"name": "Vitální svět Čechovka",
			"icon_name": "mix_aktivit",
			"recommended": false,
			"is_new": false
		}
	}, {
		"id": 723,
		"type": "Feature",
		"geometry": {
			"type": "Point",
			"coordinates": [14.647241, 50.177364]
		},
		"properties": {
			"name": "jóga brandýs: Studio Vrábí",
			"icon_name": "joga_a_zdravotni_cviceni",
			"recommended": false,
			"is_new": false
		}
	}, {
		"id": 579,
		"type": "Feature",
		"geometry": {
			"type": "Point",
			"coordinates": [16.6396514, 49.3640314]
		},
		"properties": {
			"name": "Služby Blansko - Aquapark",
			"icon_name": "bazeny_a_vodni_sporty",
			"recommended": false,
			"is_new": false
		}
	}, {
		"id": 1815,
		"type": "Feature",
		"geometry": {
			"type": "Point",
			"coordinates": [14.5073069, 50.2005686]
		},
		"properties": {
			"name": "Kukuřičné bludiště Praha - Líbeznice",
			"icon_name": "rodice_s_detmi",
			"recommended": false,
			"is_new": false
		}
	}, {
		"id": 1791,
		"type": "Feature",
		"geometry": {
			"type": "Point",
			"coordinates": [16.950009, 49.18766]
		},
		"properties": {
			"name": "Koupaliště Dražovice",
			"icon_name": "bazeny_a_vodni_sporty",
			"recommended": false,
			"is_new": false
		}
	}, {
		"id": 1241,
		"type": "Feature",
		"geometry": {
			"type": "Point",
			"coordinates": [12.917815, 49.439163]
		},
		"properties": {
			"name": "Sportovní centrum Domažlice",
			"icon_name": "mix_aktivit",
			"recommended": false,
			"is_new": false
		}
	}, {
		"id": 756,
		"type": "Feature",
		"geometry": {
			"type": "Point",
			"coordinates": [14.039198, 50.66943]
		},
		"properties": {
			"name": "FITNESS ARENA",
			"icon_name": "posilovny_a_silove_treninky",
			"recommended": false,
			"is_new": false
		}
	}, {
		"id": 883,
		"type": "Feature",
		"geometry": {
			"type": "Point",
			"coordinates": [15.177647, 50.731967]
		},
		"properties": {
			"name": "Městský plavecký bazén",
			"icon_name": "mix_aktivit",
			"recommended": false,
			"is_new": false
		}
	}, {
		"id": 830,
		"type": "Feature",
		"geometry": {
			"type": "Point",
			"coordinates": [14.042785, 50.665494]
		},
		"properties": {
			"name": "BRUTAL KRUHÁČ, Ústí nad Labem",
			"icon_name": "skupinove_a_tanecni_lekce",
			"recommended": false,
			"is_new": false
		}
	}, {
		"id": 838,
		"type": "Feature",
		"geometry": {
			"type": "Point",
			"coordinates": [17.304443, 49.354979]
		},
		"properties": {
			"name": "Statek Kojetín, sportovně relaxační centrum",
			"icon_name": "mix_aktivit",
			"recommended": false,
			"is_new": false
		}
	}, {
		"id": 1035,
		"type": "Feature",
		"geometry": {
			"type": "Point",
			"coordinates": [14.11328, 50.134073]
		},
		"properties": {
			"name": "Pilates Kladno Anetta",
			"icon_name": "mix_aktivit",
			"recommended": false,
			"is_new": false
		}
	}, {
		"id": 831,
		"type": "Feature",
		"geometry": {
			"type": "Point",
			"coordinates": [14.4548311, 50.0699436]
		},
		"properties": {
			"name": "BRUTAL KRUHÁČ, Praha 10",
			"icon_name": "skupinove_a_tanecni_lekce",
			"recommended": false,
			"is_new": false
		}
	}, {
		"id": 941,
		"type": "Feature",
		"geometry": {
			"type": "Point",
			"coordinates": [17.665695, 49.227194]
		},
		"properties": {
			"name": "Infitness - Zlín",
			"icon_name": "mix_aktivit",
			"recommended": false,
			"is_new": false
		}
	}, {
		"id": 870,
		"type": "Feature",
		"geometry": {
			"type": "Point",
			"coordinates": [16.613925, 49.195234]
		},
		"properties": {
			"name": "Fitness 3000",
			"icon_name": "posilovny_a_silove_treninky",
			"recommended": false,
			"is_new": false
		}
	}, {
		"id": 991,
		"type": "Feature",
		"geometry": {
			"type": "Point",
			"coordinates": [15.562526, 49.399154]
		},
		"properties": {
			"name": "Gym centrum",
			"icon_name": "mix_aktivit",
			"recommended": false,
			"is_new": false
		}
	}, {
		"id": 1525,
		"type": "Feature",
		"geometry": {
			"type": "Point",
			"coordinates": [16.6125992, 49.2116008]
		},
		"properties": {
			"name": "Tenisová hala Drobného",
			"icon_name": "raketove_a_micove_sporty",
			"recommended": false,
			"is_new": false
		}
	}, {
		"id": 1145,
		"type": "Feature",
		"geometry": {
			"type": "Point",
			"coordinates": [16.609773, 49.200916]
		},
		"properties": {
			"name": "MY FIT studio",
			"icon_name": "mix_aktivit",
			"recommended": false,
			"is_new": false
		}
	}, {
		"id": 2018,
		"type": "Feature",
		"geometry": {
			"type": "Point",
			"coordinates": [14.4758789, 50.1034756]
		},
		"properties": {
			"name": "Fox Gym",
			"icon_name": "skupinove_a_tanecni_lekce",
			"recommended": false,
			"is_new": false
		}
	}, {
		"id": 754,
		"type": "Feature",
		"geometry": {
			"type": "Point",
			"coordinates": [16.5956217, 49.2217567]
		},
		"properties": {
			"name": "CrossFit Destiny Brno",
			"icon_name": "posilovny_a_silove_treninky",
			"recommended": false,
			"is_new": false
		}
	}, {
		"id": 618,
		"type": "Feature",
		"geometry": {
			"type": "Point",
			"coordinates": [15.347173, 50.445066]
		},
		"properties": {
			"name": "Bastard´s Gym",
			"icon_name": "posilovny_a_silove_treninky",
			"recommended": false,
			"is_new": false
		}
	}, {
		"id": 1685,
		"type": "Feature",
		"geometry": {
			"type": "Point",
			"coordinates": [14.631739, 48.842244]
		},
		"properties": {
			"name": "Kondiční studio Borek",
			"icon_name": "mix_aktivit",
			"recommended": false,
			"is_new": false
		}
	}, {
		"id": 1588,
		"type": "Feature",
		"geometry": {
			"type": "Point",
			"coordinates": [13.3685367, 49.7464453]
		},
		"properties": {
			"name": "Avalon Wellness",
			"icon_name": "wellness_a_relax",
			"recommended": false,
			"is_new": false
		}
	}, {
		"id": 1698,
		"type": "Feature",
		"geometry": {
			"type": "Point",
			"coordinates": [14.3920656, 50.1619406]
		},
		"properties": {
			"name": "Bowling Roztoky",
			"icon_name": "sezonni_a_ostatni_aktivity",
			"recommended": false,
			"is_new": false
		}
	}, {
		"id": 1695,
		"type": "Feature",
		"geometry": {
			"type": "Point",
			"coordinates": [16.586832, 49.236564]
		},
		"properties": {
			"name": "Aikido Ikigai Dojo Brno",
			"icon_name": "skupinove_a_tanecni_lekce",
			"recommended": false,
			"is_new": false
		}
	}, {
		"id": 1461,
		"type": "Feature",
		"geometry": {
			"type": "Point",
			"coordinates": [14.527968, 50.101852]
		},
		"properties": {
			"name": "Eagle Fitness",
			"icon_name": "mix_aktivit",
			"recommended": false,
			"is_new": false
		}
	}, {
		"id": 1751,
		"type": "Feature",
		"geometry": {
			"type": "Point",
			"coordinates": [15.8960206, 49.2132153]
		},
		"properties": {
			"name": "Horácký tenisový klub Třebíč",
			"icon_name": "mix_aktivit",
			"recommended": false,
			"is_new": false
		}
	}, {
		"id": 798,
		"type": "Feature",
		"geometry": {
			"type": "Point",
			"coordinates": [14.137619, 50.134379]
		},
		"properties": {
			"name": "Dream Body Fitness",
			"icon_name": "posilovny_a_silove_treninky",
			"recommended": false,
			"is_new": false
		}
	}, {
		"id": 394,
		"type": "Feature",
		"geometry": {
			"type": "Point",
			"coordinates": [16.7361053, 48.9369333]
		},
		"properties": {
			"name": "FITNESS CLUB FREEDOM",
			"icon_name": "mix_aktivit",
			"recommended": false,
			"is_new": false
		}
	}, {
		"id": 2020,
		"type": "Feature",
		"geometry": {
			"type": "Point",
			"coordinates": [18.5531056, 49.8669433]
		},
		"properties": {
			"name": "Studio Daniela",
			"icon_name": "skupinove_a_tanecni_lekce",
			"recommended": false,
			"is_new": false
		}
	}, {
		"id": 292,
		"type": "Feature",
		"geometry": {
			"type": "Point",
			"coordinates": [14.4685669, 50.0998925]
		},
		"properties": {
			"name": "TKBC",
			"icon_name": "skupinove_a_tanecni_lekce",
			"recommended": false,
			"is_new": false
		}
	}, {
		"id": 13,
		"type": "Feature",
		"geometry": {
			"type": "Point",
			"coordinates": [13.4538289, 50.5035194]
		},
		"properties": {
			"name": "RT Sport – Fitness",
			"icon_name": "mix_aktivit",
			"recommended": false,
			"is_new": false
		}
	}, {
		"id": 1008,
		"type": "Feature",
		"geometry": {
			"type": "Point",
			"coordinates": [14.331559, 50.044064]
		},
		"properties": {
			"name": "Solná jeskyně Sůl nad Zlato",
			"icon_name": "wellness_a_relax",
			"recommended": false,
			"is_new": false
		}
	}, {
		"id": 443,
		"type": "Feature",
		"geometry": {
			"type": "Point",
			"coordinates": [14.1765639, 49.7786719]
		},
		"properties": {
			"name": "TenisCentrum Dobříš",
			"icon_name": "raketove_a_micove_sporty",
			"recommended": false,
			"is_new": false
		}
	}, {
		"id": 1293,
		"type": "Feature",
		"geometry": {
			"type": "Point",
			"coordinates": [14.642383, 50.079538]
		},
		"properties": {
			"name": "Rezidence & Wellness Blatov",
			"icon_name": "mix_aktivit",
			"recommended": false,
			"is_new": false
		}
	}, {
		"id": 827,
		"type": "Feature",
		"geometry": {
			"type": "Point",
			"coordinates": [17.255332, 49.57724]
		},
		"properties": {
			"name": "Infinity fitness Olomouc",
			"icon_name": "mix_aktivit",
			"recommended": false,
			"is_new": false
		}
	}, {
		"id": 388,
		"type": "Feature",
		"geometry": {
			"type": "Point",
			"coordinates": [15.0436472, 50.1798931]
		},
		"properties": {
			"name": "Viking Gym Nymburk",
			"icon_name": "posilovny_a_silove_treninky",
			"recommended": false,
			"is_new": false
		}
	}, {
		"id": 1663,
		"type": "Feature",
		"geometry": {
			"type": "Point",
			"coordinates": [14.439879, 50.049652]
		},
		"properties": {
			"name": "Salming Praha Pankrác",
			"icon_name": "skupinove_a_tanecni_lekce",
			"recommended": false,
			"is_new": false
		}
	}, {
		"id": 1835,
		"type": "Feature",
		"geometry": {
			"type": "Point",
			"coordinates": [16.641471, 49.158986]
		},
		"properties": {
			"name": "Bowling Kaštanka",
			"icon_name": "sezonni_a_ostatni_aktivity",
			"recommended": false,
			"is_new": false
		}
	}, {
		"id": 368,
		"type": "Feature",
		"geometry": {
			"type": "Point",
			"coordinates": [15.8188067, 50.2131642]
		},
		"properties": {
			"name": "Fly Zone Park",
			"icon_name": "skupinove_a_tanecni_lekce",
			"recommended": false,
			"is_new": false
		}
	}, {
		"id": 475,
		"type": "Feature",
		"geometry": {
			"type": "Point",
			"coordinates": [14.0435681, 50.6471272]
		},
		"properties": {
			"name": "HUDY Lezecká stěna Ústí nad Labem",
			"icon_name": "lezecke_steny",
			"recommended": false,
			"is_new": false
		}
	}, {
		"id": 456,
		"type": "Feature",
		"geometry": {
			"type": "Point",
			"coordinates": [17.4636839, 49.0598094]
		},
		"properties": {
			"name": "Madness Gym",
			"icon_name": "mix_aktivit",
			"recommended": false,
			"is_new": false
		}
	}, {
		"id": 1111,
		"type": "Feature",
		"geometry": {
			"type": "Point",
			"coordinates": [15.00441, 49.147714]
		},
		"properties": {
			"name": "Fitko Eden",
			"icon_name": "mix_aktivit",
			"recommended": false,
			"is_new": false
		}
	}, {
		"id": 1146,
		"type": "Feature",
		"geometry": {
			"type": "Point",
			"coordinates": [14.502038, 50.105445]
		},
		"properties": {
			"name": "MTv Fitness (Rezidence Eliška)",
			"icon_name": "posilovny_a_silove_treninky",
			"recommended": false,
			"is_new": false
		}
	}, {
		"id": 387,
		"type": "Feature",
		"geometry": {
			"type": "Point",
			"coordinates": [15.2172836, 50.0166944]
		},
		"properties": {
			"name": "Tvůj Gym",
			"icon_name": "mix_aktivit",
			"recommended": false,
			"is_new": false
		}
	}, {
		"id": 1162,
		"type": "Feature",
		"geometry": {
			"type": "Point",
			"coordinates": [14.232469, 50.034557]
		},
		"properties": {
			"name": "MEKA Fitness",
			"icon_name": "mix_aktivit",
			"recommended": false,
			"is_new": false
		}
	}, {
		"id": 562,
		"type": "Feature",
		"geometry": {
			"type": "Point",
			"coordinates": [16.8811936, 48.7642292]
		},
		"properties": {
			"name": "Tereza Břeclav - Krytý bazén",
			"icon_name": "bazeny_a_vodni_sporty",
			"recommended": false,
			"is_new": false
		}
	}, {
		"id": 1577,
		"type": "Feature",
		"geometry": {
			"type": "Point",
			"coordinates": [18.1438914, 49.5987903]
		},
		"properties": {
			"name": "TatraFIT Kopřivnice",
			"icon_name": "mix_aktivit",
			"recommended": false,
			"is_new": false
		}
	}, {
		"id": 1405,
		"type": "Feature",
		"geometry": {
			"type": "Point",
			"coordinates": [14.392746, 50.057735]
		},
		"properties": {
			"name": "Fitness Station",
			"icon_name": "posilovny_a_silove_treninky",
			"recommended": false,
			"is_new": false
		}
	}, {
		"id": 267,
		"type": "Feature",
		"geometry": {
			"type": "Point",
			"coordinates": [13.5426226563, 50.3200213295]
		},
		"properties": {
			"name": "B-Fitness centrum",
			"icon_name": "posilovny_a_silove_treninky",
			"recommended": false,
			"is_new": false
		}
	}, {
		"id": 87,
		"type": "Feature",
		"geometry": {
			"type": "Point",
			"coordinates": [16.600183, 49.2036]
		},
		"properties": {
			"name": "BehejBrno.com",
			"icon_name": "skupinove_a_tanecni_lekce",
			"recommended": false,
			"is_new": false
		}
	}, {
		"id": 632,
		"type": "Feature",
		"geometry": {
			"type": "Point",
			"coordinates": [15.845207, 50.21453]
		},
		"properties": {
			"name": "Fitcentrum u Pilnáčka",
			"icon_name": "posilovny_a_silove_treninky",
			"recommended": false,
			"is_new": false
		}
	}, {
		"id": 592,
		"type": "Feature",
		"geometry": {
			"type": "Point",
			"coordinates": [14.4121, 50.0068122]
		},
		"properties": {
			"name": "TC TEMPO - areál MODŘANY",
			"icon_name": "raketove_a_micove_sporty",
			"recommended": false,
			"is_new": false
		}
	}, {
		"id": 1811,
		"type": "Feature",
		"geometry": {
			"type": "Point",
			"coordinates": [15.0960089, 50.6250242]
		},
		"properties": {
			"name": "Kukuřičné bludiště Sychrov",
			"icon_name": "rodice_s_detmi",
			"recommended": false,
			"is_new": false
		}
	}, {
		"id": 1780,
		"type": "Feature",
		"geometry": {
			"type": "Point",
			"coordinates": [16.63379, 49.137751]
		},
		"properties": {
			"name": "Olympia pláž",
			"icon_name": "raketove_a_micove_sporty",
			"recommended": false,
			"is_new": false
		}
	}, {
		"id": 474,
		"type": "Feature",
		"geometry": {
			"type": "Point",
			"coordinates": [14.4176147, 50.0820969]
		},
		"properties": {
			"name": "YOGAME STUDIO",
			"icon_name": "joga_a_zdravotni_cviceni",
			"recommended": false,
			"is_new": false
		}
	}, {
		"id": 31,
		"type": "Feature",
		"geometry": {
			"type": "Point",
			"coordinates": [15.7582819, 50.2579672]
		},
		"properties": {
			"name": "Plavecký bazén Všestary",
			"icon_name": "mix_aktivit",
			"recommended": false,
			"is_new": false
		}
	}, {
		"id": 705,
		"type": "Feature",
		"geometry": {
			"type": "Point",
			"coordinates": [14.438278, 50.020497]
		},
		"properties": {
			"name": "Fitness Lhotka",
			"icon_name": "mix_aktivit",
			"recommended": false,
			"is_new": false
		}
	}, {
		"id": 1773,
		"type": "Feature",
		"geometry": {
			"type": "Point",
			"coordinates": [14.4906026, 50.1052128]
		},
		"properties": {
			"name": "SB Fitness",
			"icon_name": "posilovny_a_silove_treninky",
			"recommended": false,
			"is_new": false
		}
	}, {
		"id": 711,
		"type": "Feature",
		"geometry": {
			"type": "Point",
			"coordinates": [14.102065, 50.146708]
		},
		"properties": {
			"name": "Yoga light studio Kladno, Zelený dvůr",
			"icon_name": "joga_a_zdravotni_cviceni",
			"recommended": false,
			"is_new": false
		}
	}, {
		"id": 758,
		"type": "Feature",
		"geometry": {
			"type": "Point",
			"coordinates": [15.017102, 49.140712]
		},
		"properties": {
			"name": "H.E.A.T. Centrum Jindřichův Hradec",
			"icon_name": "skupinove_a_tanecni_lekce",
			"recommended": false,
			"is_new": false
		}
	}, {
		"id": 799,
		"type": "Feature",
		"geometry": {
			"type": "Point",
			"coordinates": [14.315561, 49.948072]
		},
		"properties": {
			"name": "FYZIOFITNESS Černošice",
			"icon_name": "mix_aktivit",
			"recommended": false,
			"is_new": false
		}
	}, {
		"id": 847,
		"type": "Feature",
		"geometry": {
			"type": "Point",
			"coordinates": [14.308629, 50.065242]
		},
		"properties": {
			"name": "DrFit - fitness 24h/7 dní",
			"icon_name": "posilovny_a_silove_treninky",
			"recommended": false,
			"is_new": false
		}
	}, {
		"id": 855,
		"type": "Feature",
		"geometry": {
			"type": "Point",
			"coordinates": [16.639656, 49.364031]
		},
		"properties": {
			"name": "Služby Blansko-Krytý bazén",
			"icon_name": "mix_aktivit",
			"recommended": false,
			"is_new": false
		}
	}, {
		"id": 902,
		"type": "Feature",
		"geometry": {
			"type": "Point",
			"coordinates": [14.041211, 50.659941]
		},
		"properties": {
			"name": "Fitneska Ústí",
			"icon_name": "mix_aktivit",
			"recommended": false,
			"is_new": false
		}
	}, {
		"id": 1081,
		"type": "Feature",
		"geometry": {
			"type": "Point",
			"coordinates": [14.548763, 50.767714]
		},
		"properties": {
			"name": "OLYMP Fitness",
			"icon_name": "mix_aktivit",
			"recommended": false,
			"is_new": false
		}
	}, {
		"id": 746,
		"type": "Feature",
		"geometry": {
			"type": "Point",
			"coordinates": [14.498972, 50.08045]
		},
		"properties": {
			"name": "Fitness & Health Club Malešice",
			"icon_name": "mix_aktivit",
			"recommended": false,
			"is_new": false
		}
	}, {
		"id": 1546,
		"type": "Feature",
		"geometry": {
			"type": "Point",
			"coordinates": [12.3761678, 50.06452]
		},
		"properties": {
			"name": "Sportcentrum Cheb",
			"icon_name": "posilovny_a_silove_treninky",
			"recommended": false,
			"is_new": false
		}
	}, {
		"id": 937,
		"type": "Feature",
		"geometry": {
			"type": "Point",
			"coordinates": [12.987014, 49.881099]
		},
		"properties": {
			"name": "Wellnes centrum Konstantin",
			"icon_name": "mix_aktivit",
			"recommended": false,
			"is_new": false
		}
	}, {
		"id": 1716,
		"type": "Feature",
		"geometry": {
			"type": "Point",
			"coordinates": [16.718134, 49.170456]
		},
		"properties": {
			"name": "Sportovní areál ROCI",
			"icon_name": "raketove_a_micove_sporty",
			"recommended": false,
			"is_new": false
		}
	}, {
		"id": 1667,
		"type": "Feature",
		"geometry": {
			"type": "Point",
			"coordinates": [16.622152, 49.032718]
		},
		"properties": {
			"name": "JumpFit Brno - Tyršova",
			"icon_name": "skupinove_a_tanecni_lekce",
			"recommended": false,
			"is_new": false
		}
	}, {
		"id": 1097,
		"type": "Feature",
		"geometry": {
			"type": "Point",
			"coordinates": [15.847572, 50.18548]
		},
		"properties": {
			"name": "Ladies Fitness Studio",
			"icon_name": "posilovny_a_silove_treninky",
			"recommended": false,
			"is_new": false
		}
	}, {
		"id": 1830,
		"type": "Feature",
		"geometry": {
			"type": "Point",
			"coordinates": [17.958593, 49.468481]
		},
		"properties": {
			"name": "Fitness Abácie",
			"icon_name": "posilovny_a_silove_treninky",
			"recommended": false,
			"is_new": false
		}
	}, {
		"id": 95,
		"type": "Feature",
		"geometry": {
			"type": "Point",
			"coordinates": [18.158765, 49.4650458]
		},
		"properties": {
			"name": "ROŽNOVSKÉ KOUPALIŠTĚ",
			"icon_name": "bazeny_a_vodni_sporty",
			"recommended": false,
			"is_new": false
		}
	}, {
		"id": 1836,
		"type": "Feature",
		"geometry": {
			"type": "Point",
			"coordinates": [16.610377, 49.194791]
		},
		"properties": {
			"name": "YOGA i-D",
			"icon_name": "joga_a_zdravotni_cviceni",
			"recommended": false,
			"is_new": false
		}
	}, {
		"id": 1240,
		"type": "Feature",
		"geometry": {
			"type": "Point",
			"coordinates": [17.666982, 49.225636]
		},
		"properties": {
			"name": "Sportovní centrum Heat Fit",
			"icon_name": "skupinove_a_tanecni_lekce",
			"recommended": false,
			"is_new": false
		}
	}, {
		"id": 678,
		"type": "Feature",
		"geometry": {
			"type": "Point",
			"coordinates": [13.647219, 50.495886]
		},
		"properties": {
			"name": "Aquadrom Most",
			"icon_name": "mix_aktivit",
			"recommended": false,
			"is_new": false
		}
	}, {
		"id": 1803,
		"type": "Feature",
		"geometry": {
			"type": "Point",
			"coordinates": [13.9505, 50.1466]
		},
		"properties": {
			"name": "Sportovní areál města Stochov",
			"icon_name": "mix_aktivit",
			"recommended": false,
			"is_new": false
		}
	}, {
		"id": 378,
		"type": "Feature",
		"geometry": {
			"type": "Point",
			"coordinates": [18.1680406, 49.8392136]
		},
		"properties": {
			"name": "Relax 365",
			"icon_name": "mix_aktivit",
			"recommended": false,
			"is_new": false
		}
	}, {
		"id": 1470,
		"type": "Feature",
		"geometry": {
			"type": "Point",
			"coordinates": [14.600148, 49.13045]
		},
		"properties": {
			"name": "Cvíčko s L.I.M. - Neplachov",
			"icon_name": "skupinove_a_tanecni_lekce",
			"recommended": false,
			"is_new": false
		}
	}, {
		"id": 627,
		"type": "Feature",
		"geometry": {
			"type": "Point",
			"coordinates": [16.8807431, 48.7630614]
		},
		"properties": {
			"name": "Tereza Břeclav - Letní koupaliště",
			"icon_name": "bazeny_a_vodni_sporty",
			"recommended": false,
			"is_new": false
		}
	}, {
		"id": 1566,
		"type": "Feature",
		"geometry": {
			"type": "Point",
			"coordinates": [14.4432075, 50.0736139]
		},
		"properties": {
			"name": "Powerfit",
			"icon_name": "mix_aktivit",
			"recommended": false,
			"is_new": false
		}
	}, {
		"id": 1586,
		"type": "Feature",
		"geometry": {
			"type": "Point",
			"coordinates": [18.3664722, 49.9089481]
		},
		"properties": {
			"name": "Plážový volejbal Bohumín",
			"icon_name": "raketove_a_micove_sporty",
			"recommended": false,
			"is_new": false
		}
	}, {
		"id": 83,
		"type": "Feature",
		"geometry": {
			"type": "Point",
			"coordinates": [14.0021314, 49.6844428]
		},
		"properties": {
			"name": "PB Bowling bar Příbram",
			"icon_name": "sezonni_a_ostatni_aktivity",
			"recommended": false,
			"is_new": false
		}
	}, {
		"id": 622,
		"type": "Feature",
		"geometry": {
			"type": "Point",
			"coordinates": [17.890686, 49.931742]
		},
		"properties": {
			"name": "Tenisový klub Opava",
			"icon_name": "raketove_a_micove_sporty",
			"recommended": false,
			"is_new": false
		}
	}, {
		"id": 1651,
		"type": "Feature",
		"geometry": {
			"type": "Point",
			"coordinates": [15.054148, 50.767759]
		},
		"properties": {
			"name": "Studio Dity Patrmanové",
			"icon_name": "joga_a_zdravotni_cviceni",
			"recommended": false,
			"is_new": false
		}
	}, {
		"id": 657,
		"type": "Feature",
		"geometry": {
			"type": "Point",
			"coordinates": [17.294813, 49.72603]
		},
		"properties": {
			"name": "STUDIO MOTIVACE - Šternberk",
			"icon_name": "mix_aktivit",
			"recommended": false,
			"is_new": false
		}
	}, {
		"id": 558,
		"type": "Feature",
		"geometry": {
			"type": "Point",
			"coordinates": [14.3398294, 50.0629908]
		},
		"properties": {
			"name": "Golf club Praha",
			"icon_name": "sezonni_a_ostatni_aktivity",
			"recommended": false,
			"is_new": false
		}
	}, {
		"id": 348,
		"type": "Feature",
		"geometry": {
			"type": "Point",
			"coordinates": [15.7610453, 50.0377408]
		},
		"properties": {
			"name": "Fitness A-M",
			"icon_name": "posilovny_a_silove_treninky",
			"recommended": false,
			"is_new": false
		}
	}, {
		"id": 555,
		"type": "Feature",
		"geometry": {
			"type": "Point",
			"coordinates": [16.8741406, 49.1586192]
		},
		"properties": {
			"name": "Koupaliště Slavkov",
			"icon_name": "bazeny_a_vodni_sporty",
			"recommended": false,
			"is_new": false
		}
	}, {
		"id": 389,
		"type": "Feature",
		"geometry": {
			"type": "Point",
			"coordinates": [13.6023547, 49.7383425]
		},
		"properties": {
			"name": "Lebowski Café Bar",
			"icon_name": "mix_aktivit",
			"recommended": false,
			"is_new": false
		}
	}, {
		"id": 313,
		"type": "Feature",
		"geometry": {
			"type": "Point",
			"coordinates": [15.0481197, 50.753955]
		},
		"properties": {
			"name": "Buddy bar & bowling Liberec",
			"icon_name": "sezonni_a_ostatni_aktivity",
			"recommended": false,
			"is_new": false
		}
	}, {
		"id": 796,
		"type": "Feature",
		"geometry": {
			"type": "Point",
			"coordinates": [14.4100408, 50.1192747]
		},
		"properties": {
			"name": "SPORT TROJA",
			"icon_name": "raketove_a_micove_sporty",
			"recommended": false,
			"is_new": false
		}
	}, {
		"id": 1434,
		"type": "Feature",
		"geometry": {
			"type": "Point",
			"coordinates": [15.845708, 50.195678]
		},
		"properties": {
			"name": "Fitland",
			"icon_name": "posilovny_a_silove_treninky",
			"recommended": false,
			"is_new": false
		}
	}, {
		"id": 1268,
		"type": "Feature",
		"geometry": {
			"type": "Point",
			"coordinates": [14.390633, 50.057975]
		},
		"properties": {
			"name": "Spinning - Radlice (v objektu Fitness Station)",
			"icon_name": "skupinove_a_tanecni_lekce",
			"recommended": false,
			"is_new": false
		}
	}, {
		"id": 912,
		"type": "Feature",
		"geometry": {
			"type": "Point",
			"coordinates": [18.174818, 49.837037]
		},
		"properties": {
			"name": "Squash centrum Poruba",
			"icon_name": "mix_aktivit",
			"recommended": false,
			"is_new": false
		}
	}, {
		"id": 917,
		"type": "Feature",
		"geometry": {
			"type": "Point",
			"coordinates": [17.697769, 49.222039]
		},
		"properties": {
			"name": "Fitness pro radost",
			"icon_name": "posilovny_a_silove_treninky",
			"recommended": false,
			"is_new": false
		}
	}, {
		"id": 2068,
		"type": "Feature",
		"geometry": {
			"type": "Point",
			"coordinates": [15.8470181, 50.2132272]
		},
		"properties": {
			"name": "Tesla Gym",
			"icon_name": "skupinove_a_tanecni_lekce",
			"recommended": false,
			"is_new": false
		}
	}, {
		"id": 518,
		"type": "Feature",
		"geometry": {
			"type": "Point",
			"coordinates": [14.0905731, 50.1434136]
		},
		"properties": {
			"name": "ŽIVÉ VOBRAZY, z.s.",
			"icon_name": "joga_a_zdravotni_cviceni",
			"recommended": false,
			"is_new": false
		}
	}, {
		"id": 1758,
		"type": "Feature",
		"geometry": {
			"type": "Point",
			"coordinates": [17.252172, 49.598628]
		},
		"properties": {
			"name": "HI-TECH BOX CLUB OLOMOUC",
			"icon_name": "skupinove_a_tanecni_lekce",
			"recommended": false,
			"is_new": false
		}
	}, {
		"id": 667,
		"type": "Feature",
		"geometry": {
			"type": "Point",
			"coordinates": [18.235161, 49.807577]
		},
		"properties": {
			"name": "Fitcentrum ASSEN",
			"icon_name": "mix_aktivit",
			"recommended": false,
			"is_new": false
		}
	}, {
		"id": 2014,
		"type": "Feature",
		"geometry": {
			"type": "Point",
			"coordinates": [18.7220669, 49.6393892]
		},
		"properties": {
			"name": "Bazén Bystřice",
			"icon_name": "mix_aktivit",
			"recommended": false,
			"is_new": false
		}
	}, {
		"id": 1766,
		"type": "Feature",
		"geometry": {
			"type": "Point",
			"coordinates": [17.8942267, 49.9356675]
		},
		"properties": {
			"name": "PEHA Gym",
			"icon_name": "mix_aktivit",
			"recommended": false,
			"is_new": false
		}
	}, {
		"id": 631,
		"type": "Feature",
		"geometry": {
			"type": "Point",
			"coordinates": [17.252181, 49.598591]
		},
		"properties": {
			"name": "SikiSportGym",
			"icon_name": "posilovny_a_silove_treninky",
			"recommended": false,
			"is_new": false
		}
	}, {
		"id": 1732,
		"type": "Feature",
		"geometry": {
			"type": "Point",
			"coordinates": [16.6103192, 49.1827811]
		},
		"properties": {
			"name": "CITY BEACH",
			"icon_name": "raketove_a_micove_sporty",
			"recommended": false,
			"is_new": false
		}
	}, {
		"id": 593,
		"type": "Feature",
		"geometry": {
			"type": "Point",
			"coordinates": [14.4329153, 50.0183956]
		},
		"properties": {
			"name": "TC TEMPO - areál LHOTKA",
			"icon_name": "raketove_a_micove_sporty",
			"recommended": false,
			"is_new": false
		}
	}, {
		"id": 1046,
		"type": "Feature",
		"geometry": {
			"type": "Point",
			"coordinates": [18.552894, 49.865901]
		},
		"properties": {
			"name": "Top Fitness Permon",
			"icon_name": "mix_aktivit",
			"recommended": false,
			"is_new": false
		}
	}, {
		"id": 616,
		"type": "Feature",
		"geometry": {
			"type": "Point",
			"coordinates": [14.4527586, 50.0168089]
		},
		"properties": {
			"name": "Beachvolejbalová akademie Domyno",
			"icon_name": "raketove_a_micove_sporty",
			"recommended": false,
			"is_new": false
		}
	}, {
		"id": 763,
		"type": "Feature",
		"geometry": {
			"type": "Point",
			"coordinates": [14.510988, 50.041264]
		},
		"properties": {
			"name": "SB centrum",
			"icon_name": "mix_aktivit",
			"recommended": false,
			"is_new": false
		}
	}, {
		"id": 843,
		"type": "Feature",
		"geometry": {
			"type": "Point",
			"coordinates": [14.098706, 50.145746]
		},
		"properties": {
			"name": "Petra Nováková - Fit centrum Welldone",
			"icon_name": "skupinove_a_tanecni_lekce",
			"recommended": false,
			"is_new": false
		}
	}, {
		"id": 938,
		"type": "Feature",
		"geometry": {
			"type": "Point",
			"coordinates": [14.426084, 50.100781]
		},
		"properties": {
			"name": "3DFA",
			"icon_name": "mix_aktivit",
			"recommended": false,
			"is_new": false
		}
	}, {
		"id": 806,
		"type": "Feature",
		"geometry": {
			"type": "Point",
			"coordinates": [16.644333, 49.201193]
		},
		"properties": {
			"name": "MIŠMAŠ FITNESS CENTRUM",
			"icon_name": "posilovny_a_silove_treninky",
			"recommended": false,
			"is_new": false
		}
	}, {
		"id": 894,
		"type": "Feature",
		"geometry": {
			"type": "Point",
			"coordinates": [15.353989, 50.434115]
		},
		"properties": {
			"name": "Fitness KB",
			"icon_name": "mix_aktivit",
			"recommended": false,
			"is_new": false
		}
	}, {
		"id": 1135,
		"type": "Feature",
		"geometry": {
			"type": "Point",
			"coordinates": [14.072527, 49.959182]
		},
		"properties": {
			"name": "Sportcentrum Beroun",
			"icon_name": "mix_aktivit",
			"recommended": false,
			"is_new": false
		}
	}, {
		"id": 1076,
		"type": "Feature",
		"geometry": {
			"type": "Point",
			"coordinates": [13.523894, 50.325376]
		},
		"properties": {
			"name": "Tenisový areál Žatec",
			"icon_name": "raketove_a_micove_sporty",
			"recommended": false,
			"is_new": false
		}
	}, {
		"id": 1083,
		"type": "Feature",
		"geometry": {
			"type": "Point",
			"coordinates": [16.460307, 49.760919]
		},
		"properties": {
			"name": "Sportovní hala Svitavy",
			"icon_name": "lezecke_steny",
			"recommended": false,
			"is_new": false
		}
	}, {
		"id": 1688,
		"type": "Feature",
		"geometry": {
			"type": "Point",
			"coordinates": [13.379413, 49.749595]
		},
		"properties": {
			"name": "Rock'n'Wall",
			"icon_name": "lezecke_steny",
			"recommended": false,
			"is_new": false
		}
	}, {
		"id": 308,
		"type": "Feature",
		"geometry": {
			"type": "Point",
			"coordinates": [16.6033067, 49.20034]
		},
		"properties": {
			"name": "Studio DRILL",
			"icon_name": "skupinove_a_tanecni_lekce",
			"recommended": false,
			"is_new": false
		}
	}, {
		"id": 1224,
		"type": "Feature",
		"geometry": {
			"type": "Point",
			"coordinates": [14.3898181, 50.0811386]
		},
		"properties": {
			"name": "Squashclub Strahov z.s.",
			"icon_name": "mix_aktivit",
			"recommended": false,
			"is_new": false
		}
	}, {
		"id": 1226,
		"type": "Feature",
		"geometry": {
			"type": "Point",
			"coordinates": [18.265989, 49.830096]
		},
		"properties": {
			"name": "Squash Centrum Ostrava",
			"icon_name": "raketove_a_micove_sporty",
			"recommended": false,
			"is_new": false
		}
	}, {
		"id": 650,
		"type": "Feature",
		"geometry": {
			"type": "Point",
			"coordinates": [14.129323, 50.132299]
		},
		"properties": {
			"name": "FIT STUDIO VENUŠE - 14.ZŠ",
			"icon_name": "skupinove_a_tanecni_lekce",
			"recommended": false,
			"is_new": false
		}
	}, {
		"id": 105,
		"type": "Feature",
		"geometry": {
			"type": "Point",
			"coordinates": [14.427774, 50.040019]
		},
		"properties": {
			"name": "Sky Fit",
			"icon_name": "mix_aktivit",
			"recommended": false,
			"is_new": false
		}
	}, {
		"id": 661,
		"type": "Feature",
		"geometry": {
			"type": "Point",
			"coordinates": [14.851184, 50.199204]
		},
		"properties": {
			"name": "Sport Zone",
			"icon_name": "mix_aktivit",
			"recommended": false,
			"is_new": false
		}
	}, {
		"id": 1601,
		"type": "Feature",
		"geometry": {
			"type": "Point",
			"coordinates": [16.8808494, 49.8794206]
		},
		"properties": {
			"name": "Bowling El Paso",
			"icon_name": "sezonni_a_ostatni_aktivity",
			"recommended": false,
			"is_new": false
		}
	}, {
		"id": 1799,
		"type": "Feature",
		"geometry": {
			"type": "Point",
			"coordinates": [14.1475028, 49.3087953]
		},
		"properties": {
			"name": "Rekola Písek",
			"icon_name": "sezonni_a_ostatni_aktivity",
			"recommended": false,
			"is_new": false
		}
	}, {
		"id": 165,
		"type": "Feature",
		"geometry": {
			"type": "Point",
			"coordinates": [17.5316153, 49.2046253]
		},
		"properties": {
			"name": "DVfitness – Alpinning",
			"icon_name": "skupinove_a_tanecni_lekce",
			"recommended": false,
			"is_new": false
		}
	}, {
		"id": 1270,
		"type": "Feature",
		"geometry": {
			"type": "Point",
			"coordinates": [14.51096, 50.136787]
		},
		"properties": {
			"name": "Solný chrám - Solná jeskyně Letňany",
			"icon_name": "wellness_a_relax",
			"recommended": false,
			"is_new": false
		}
	}, {
		"id": 391,
		"type": "Feature",
		"geometry": {
			"type": "Point",
			"coordinates": [14.4679647, 50.0582583]
		},
		"properties": {
			"name": "JonasGym",
			"icon_name": "mix_aktivit",
			"recommended": false,
			"is_new": false
		}
	}, {
		"id": 1985,
		"type": "Feature",
		"geometry": {
			"type": "Point",
			"coordinates": [18.2955819, 49.8553703]
		},
		"properties": {
			"name": "Bazén Mexiko",
			"icon_name": "bazeny_a_vodni_sporty",
			"recommended": false,
			"is_new": false
		}
	}, {
		"id": 1823,
		"type": "Feature",
		"geometry": {
			"type": "Point",
			"coordinates": [17.44559, 49.458711]
		},
		"properties": {
			"name": "Plavecký areál Přerov",
			"icon_name": "bazeny_a_vodni_sporty",
			"recommended": false,
			"is_new": false
		}
	}, {
		"id": 199,
		"type": "Feature",
		"geometry": {
			"type": "Point",
			"coordinates": [18.6831683, 49.6625081]
		},
		"properties": {
			"name": "Squash Centrum Třinec",
			"icon_name": "mix_aktivit",
			"recommended": false,
			"is_new": false
		}
	}, {
		"id": 1549,
		"type": "Feature",
		"geometry": {
			"type": "Point",
			"coordinates": [17.1064942, 49.4735467]
		},
		"properties": {
			"name": "Městské lázně Prostějov",
			"icon_name": "mix_aktivit",
			"recommended": false,
			"is_new": false
		}
	}, {
		"id": 1515,
		"type": "Feature",
		"geometry": {
			"type": "Point",
			"coordinates": [16.1583761, 49.9505006]
		},
		"properties": {
			"name": "Krytý plavecký bazén",
			"icon_name": "bazeny_a_vodni_sporty",
			"recommended": false,
			"is_new": false
		}
	}, {
		"id": 7,
		"type": "Feature",
		"geometry": {
			"type": "Point",
			"coordinates": [13.8814642, 49.8394953]
		},
		"properties": {
			"name": "Fitness Hořovice",
			"icon_name": "posilovny_a_silove_treninky",
			"recommended": false,
			"is_new": false
		}
	}, {
		"id": 1351,
		"type": "Feature",
		"geometry": {
			"type": "Point",
			"coordinates": [15.277597, 49.946463]
		},
		"properties": {
			"name": "Krytý bazén TJ Sparta KH",
			"icon_name": "mix_aktivit",
			"recommended": false,
			"is_new": false
		}
	}, {
		"id": 1986,
		"type": "Feature",
		"geometry": {
			"type": "Point",
			"coordinates": [14.8653239, 50.2251281]
		},
		"properties": {
			"name": "Rodinné centrum Milovice",
			"icon_name": "rodice_s_detmi",
			"recommended": false,
			"is_new": false
		}
	}, {
		"id": 707,
		"type": "Feature",
		"geometry": {
			"type": "Point",
			"coordinates": [16.536912, 49.310934]
		},
		"properties": {
			"name": "Wellness Kuřim",
			"icon_name": "mix_aktivit",
			"recommended": false,
			"is_new": false
		}
	}, {
		"id": 1357,
		"type": "Feature",
		"geometry": {
			"type": "Point",
			"coordinates": [14.341873, 50.089417]
		},
		"properties": {
			"name": "Klub kapitána Nema",
			"icon_name": "mix_aktivit",
			"recommended": false,
			"is_new": false
		}
	}, {
		"id": 1530,
		"type": "Feature",
		"geometry": {
			"type": "Point",
			"coordinates": [14.4872869, 48.9711136]
		},
		"properties": {
			"name": "BcrossGym",
			"icon_name": "mix_aktivit",
			"recommended": false,
			"is_new": false
		}
	}, {
		"id": 1371,
		"type": "Feature",
		"geometry": {
			"type": "Point",
			"coordinates": [15.76749, 50.022012]
		},
		"properties": {
			"name": "IFC Pardubice",
			"icon_name": "posilovny_a_silove_treninky",
			"recommended": false,
			"is_new": false
		}
	}, {
		"id": 477,
		"type": "Feature",
		"geometry": {
			"type": "Point",
			"coordinates": [13.5928503, 49.7315906]
		},
		"properties": {
			"name": "SPORTCENTRUM KASÁRNA ROKYCANY",
			"icon_name": "mix_aktivit",
			"recommended": false,
			"is_new": false
		}
	}, {
		"id": 1388,
		"type": "Feature",
		"geometry": {
			"type": "Point",
			"coordinates": [16.975188, 49.965843]
		},
		"properties": {
			"name": "H.E.A.T. centrum Šumperk",
			"icon_name": "skupinove_a_tanecni_lekce",
			"recommended": false,
			"is_new": false
		}
	}, {
		"id": 8,
		"type": "Feature",
		"geometry": {
			"type": "Point",
			"coordinates": [15.1152389, 50.1452236]
		},
		"properties": {
			"name": "Boxing Poděbrady",
			"icon_name": "mix_aktivit",
			"recommended": false,
			"is_new": false
		}
	}, {
		"id": 208,
		"type": "Feature",
		"geometry": {
			"type": "Point",
			"coordinates": [16.6568, 49.2075]
		},
		"properties": {
			"name": "Fitness Romana - Bzenecká",
			"icon_name": "mix_aktivit",
			"recommended": false,
			"is_new": false
		}
	}, {
		"id": 246,
		"type": "Feature",
		"geometry": {
			"type": "Point",
			"coordinates": [16.0865583, 50.4804894]
		},
		"properties": {
			"name": "Fitness centrum David Klemeš",
			"icon_name": "posilovny_a_silove_treninky",
			"recommended": false,
			"is_new": false
		}
	}, {
		"id": 1537,
		"type": "Feature",
		"geometry": {
			"type": "Point",
			"coordinates": [14.4464492, 50.0825583]
		},
		"properties": {
			"name": "Boulder V síti",
			"icon_name": "lezecke_steny",
			"recommended": false,
			"is_new": false
		}
	}, {
		"id": 1167,
		"type": "Feature",
		"geometry": {
			"type": "Point",
			"coordinates": [14.535779, 50.10475]
		},
		"properties": {
			"name": "Plavecký a sportovní areál Hloubětín",
			"icon_name": "bazeny_a_vodni_sporty",
			"recommended": false,
			"is_new": false
		}
	}, {
		"id": 1469,
		"type": "Feature",
		"geometry": {
			"type": "Point",
			"coordinates": [14.701227, 49.185433]
		},
		"properties": {
			"name": "Cvíčko s L.I.M. - Veselí n/L.",
			"icon_name": "skupinove_a_tanecni_lekce",
			"recommended": false,
			"is_new": false
		}
	}, {
		"id": 929,
		"type": "Feature",
		"geometry": {
			"type": "Point",
			"coordinates": [14.207861, 50.769362]
		},
		"properties": {
			"name": "S-centrum Děčín",
			"icon_name": "mix_aktivit",
			"recommended": false,
			"is_new": false
		}
	}, {
		"id": 455,
		"type": "Feature",
		"geometry": {
			"type": "Point",
			"coordinates": [17.2560036, 49.5804861]
		},
		"properties": {
			"name": "Infitness Olomouc",
			"icon_name": "posilovny_a_silove_treninky",
			"recommended": false,
			"is_new": false
		}
	}, {
		"id": 1567,
		"type": "Feature",
		"geometry": {
			"type": "Point",
			"coordinates": [16.4361075, 49.9130175]
		},
		"properties": {
			"name": "Royal Gym",
			"icon_name": "posilovny_a_silove_treninky",
			"recommended": false,
			"is_new": false
		}
	}, {
		"id": 1659,
		"type": "Feature",
		"geometry": {
			"type": "Point",
			"coordinates": [18.0536569, 49.7116728]
		},
		"properties": {
			"name": "Sportovní centrum SAK Studénka",
			"icon_name": "mix_aktivit",
			"recommended": false,
			"is_new": false
		}
	}, {
		"id": 1608,
		"type": "Feature",
		"geometry": {
			"type": "Point",
			"coordinates": [18.2531592, 49.7826433]
		},
		"properties": {
			"name": "Fitcentrum Dragon",
			"icon_name": "posilovny_a_silove_treninky",
			"recommended": false,
			"is_new": false
		}
	}, {
		"id": 654,
		"type": "Feature",
		"geometry": {
			"type": "Point",
			"coordinates": [17.689611, 50.08955]
		},
		"properties": {
			"name": "Renta GYM",
			"icon_name": "posilovny_a_silove_treninky",
			"recommended": false,
			"is_new": false
		}
	}, {
		"id": 12,
		"type": "Feature",
		"geometry": {
			"type": "Point",
			"coordinates": [14.5165286, 50.0246842]
		},
		"properties": {
			"name": "Jihoměstská solná jeskyně",
			"icon_name": "wellness_a_relax",
			"recommended": false,
			"is_new": false
		}
	}, {
		"id": 340,
		"type": "Feature",
		"geometry": {
			"type": "Point",
			"coordinates": [16.0731683, 50.1545164]
		},
		"properties": {
			"name": "Fit Fitness",
			"icon_name": "mix_aktivit",
			"recommended": false,
			"is_new": false
		}
	}, {
		"id": 2053,
		"type": "Feature",
		"geometry": {
			"type": "Point",
			"coordinates": [15.771738, 50.013794]
		},
		"properties": {
			"name": "Active Sport Club",
			"icon_name": "raketove_a_micove_sporty",
			"recommended": false,
			"is_new": false
		}
	}, {
		"id": 1459,
		"type": "Feature",
		"geometry": {
			"type": "Point",
			"coordinates": [14.50716, 49.97077]
		},
		"properties": {
			"name": "ELLA STUDIO",
			"icon_name": "mix_aktivit",
			"recommended": false,
			"is_new": false
		}
	}, {
		"id": 1657,
		"type": "Feature",
		"geometry": {
			"type": "Point",
			"coordinates": [15.3867036, 49.9160256]
		},
		"properties": {
			"name": "Potírna Čáslav",
			"icon_name": "mix_aktivit",
			"recommended": false,
			"is_new": false
		}
	}, {
		"id": 604,
		"type": "Feature",
		"geometry": {
			"type": "Point",
			"coordinates": [14.3332044, 50.0927303]
		},
		"properties": {
			"name": "Sport Centrum Evropská",
			"icon_name": "mix_aktivit",
			"recommended": false,
			"is_new": false
		}
	}, {
		"id": 1195,
		"type": "Feature",
		"geometry": {
			"type": "Point",
			"coordinates": [14.079643, 49.962905]
		},
		"properties": {
			"name": "TipSport Laguna",
			"icon_name": "mix_aktivit",
			"recommended": false,
			"is_new": false
		}
	}, {
		"id": 1420,
		"type": "Feature",
		"geometry": {
			"type": "Point",
			"coordinates": [15.770382, 50.038318]
		},
		"properties": {
			"name": "Fitness I-R Club",
			"icon_name": "posilovny_a_silove_treninky",
			"recommended": false,
			"is_new": false
		}
	}, {
		"id": 3,
		"type": "Feature",
		"geometry": {
			"type": "Point",
			"coordinates": [15.9109611, 50.5623197]
		},
		"properties": {
			"name": "TRIFIT gym & club",
			"icon_name": "posilovny_a_silove_treninky",
			"recommended": false,
			"is_new": false
		}
	}, {
		"id": 4,
		"type": "Feature",
		"geometry": {
			"type": "Point",
			"coordinates": [15.7954108, 50.2054419]
		},
		"properties": {
			"name": "Fitness Club No.32",
			"icon_name": "posilovny_a_silove_treninky",
			"recommended": false,
			"is_new": false
		}
	}, {
		"id": 645,
		"type": "Feature",
		"geometry": {
			"type": "Point",
			"coordinates": [13.373782, 49.742478]
		},
		"properties": {
			"name": "F4F - Fit For Fun",
			"icon_name": "mix_aktivit",
			"recommended": false,
			"is_new": false
		}
	}, {
		"id": 1168,
		"type": "Feature",
		"geometry": {
			"type": "Point",
			"coordinates": [14.30822, 50.241203]
		},
		"properties": {
			"name": "Diamond Gym",
			"icon_name": "mix_aktivit",
			"recommended": false,
			"is_new": false
		}
	}, {
		"id": 852,
		"type": "Feature",
		"geometry": {
			"type": "Point",
			"coordinates": [14.75024, 50.160809]
		},
		"properties": {
			"name": "Městský bazén Čelákovice",
			"icon_name": "bazeny_a_vodni_sporty",
			"recommended": false,
			"is_new": false
		}
	}, {
		"id": 335,
		"type": "Feature",
		"geometry": {
			"type": "Point",
			"coordinates": [14.4445192, 50.1468358]
		},
		"properties": {
			"name": "Bowling KAREL-Praha 8",
			"icon_name": "sezonni_a_ostatni_aktivity",
			"recommended": false,
			"is_new": false
		}
	}, {
		"id": 549,
		"type": "Feature",
		"geometry": {
			"type": "Point",
			"coordinates": [16.5958, 49.1788]
		},
		"properties": {
			"name": "Posilovna Malý Průvan",
			"icon_name": "mix_aktivit",
			"recommended": false,
			"is_new": false
		}
	}, {
		"id": 11,
		"type": "Feature",
		"geometry": {
			"type": "Point",
			"coordinates": [15.1994472, 50.0324436]
		},
		"properties": {
			"name": "SPORTFITNESS1",
			"icon_name": "posilovny_a_silove_treninky",
			"recommended": false,
			"is_new": false
		}
	}, {
		"id": 1518,
		"type": "Feature",
		"geometry": {
			"type": "Point",
			"coordinates": [14.4804953, 50.0821794]
		},
		"properties": {
			"name": "Relaxační centrum Na Třebešíně",
			"icon_name": "mix_aktivit",
			"recommended": false,
			"is_new": false
		}
	}, {
		"id": 19,
		"type": "Feature",
		"geometry": {
			"type": "Point",
			"coordinates": [14.9120125, 50.4164872]
		},
		"properties": {
			"name": "Broken Doll",
			"icon_name": "skupinove_a_tanecni_lekce",
			"recommended": false,
			"is_new": false
		}
	}, {
		"id": 605,
		"type": "Feature",
		"geometry": {
			"type": "Point",
			"coordinates": [16.9816914, 49.9679314]
		},
		"properties": {
			"name": "Infinity Fitness Šumperk",
			"icon_name": "posilovny_a_silove_treninky",
			"recommended": false,
			"is_new": false
		}
	}, {
		"id": 1994,
		"type": "Feature",
		"geometry": {
			"type": "Point",
			"coordinates": [14.4357108, 50.1058347]
		},
		"properties": {
			"name": "OTC - Holešovická šachta",
			"icon_name": "skupinove_a_tanecni_lekce",
			"recommended": false,
			"is_new": false
		}
	}, {
		"id": 59,
		"type": "Feature",
		"geometry": {
			"type": "Point",
			"coordinates": [14.1531217, 50.7829908]
		},
		"properties": {
			"name": "Jóga - Alena Chmelařová",
			"icon_name": "joga_a_zdravotni_cviceni",
			"recommended": false,
			"is_new": false
		}
	}, {
		"id": 1722,
		"type": "Feature",
		"geometry": {
			"type": "Point",
			"coordinates": [14.433438, 50.046555]
		},
		"properties": {
			"name": "Jump-it",
			"icon_name": "skupinove_a_tanecni_lekce",
			"recommended": false,
			"is_new": false
		}
	}, {
		"id": 186,
		"type": "Feature",
		"geometry": {
			"type": "Point",
			"coordinates": [15.0647953, 50.7831933]
		},
		"properties": {
			"name": "Makak - boulder",
			"icon_name": "lezecke_steny",
			"recommended": false,
			"is_new": false
		}
	}, {
		"id": 5,
		"type": "Feature",
		"geometry": {
			"type": "Point",
			"coordinates": [14.5574344, 50.0350828]
		},
		"properties": {
			"name": "Gladiator Fitness",
			"icon_name": "posilovny_a_silove_treninky",
			"recommended": false,
			"is_new": false
		}
	}, {
		"id": 6,
		"type": "Feature",
		"geometry": {
			"type": "Point",
			"coordinates": [14.1084667, 50.1275117]
		},
		"properties": {
			"name": "Hakim Gym",
			"icon_name": "skupinove_a_tanecni_lekce",
			"recommended": false,
			"is_new": false
		}
	}, {
		"id": 9,
		"type": "Feature",
		"geometry": {
			"type": "Point",
			"coordinates": [13.0328711, 49.3957369]
		},
		"properties": {
			"name": "Centrum vodní zábavy Kdyně",
			"icon_name": "bazeny_a_vodni_sporty",
			"recommended": false,
			"is_new": false
		}
	}, {
		"id": 10,
		"type": "Feature",
		"geometry": {
			"type": "Point",
			"coordinates": [13.1413586, 49.2916808]
		},
		"properties": {
			"name": "fitness Milano",
			"icon_name": "posilovny_a_silove_treninky",
			"recommended": false,
			"is_new": false
		}
	}, {
		"id": 14,
		"type": "Feature",
		"geometry": {
			"type": "Point",
			"coordinates": [14.8573856, 50.2111914]
		},
		"properties": {
			"name": "Humbuk bowling bar",
			"icon_name": "sezonni_a_ostatni_aktivity",
			"recommended": false,
			"is_new": false
		}
	}, {
		"id": 15,
		"type": "Feature",
		"geometry": {
			"type": "Point",
			"coordinates": [17.7245339, 49.5555217]
		},
		"properties": {
			"name": "Sports KOTELNA",
			"icon_name": "mix_aktivit",
			"recommended": false,
			"is_new": false
		}
	}, {
		"id": 17,
		"type": "Feature",
		"geometry": {
			"type": "Point",
			"coordinates": [16.8674133, 49.8767736]
		},
		"properties": {
			"name": "Fit Klub Mami",
			"icon_name": "mix_aktivit",
			"recommended": false,
			"is_new": false
		}
	}, {
		"id": 20,
		"type": "Feature",
		"geometry": {
			"type": "Point",
			"coordinates": [16.3186267, 49.8663331]
		},
		"properties": {
			"name": "Městský bazén Litomyšl",
			"icon_name": "bazeny_a_vodni_sporty",
			"recommended": false,
			"is_new": false
		}
	}, {
		"id": 1238,
		"type": "Feature",
		"geometry": {
			"type": "Point",
			"coordinates": [14.42567, 50.091189]
		},
		"properties": {
			"name": "Sportovní centrum Squash-Haštal",
			"icon_name": "mix_aktivit",
			"recommended": false,
			"is_new": false
		}
	}, {
		"id": 1149,
		"type": "Feature",
		"geometry": {
			"type": "Point",
			"coordinates": [14.375103, 50.099062]
		},
		"properties": {
			"name": "Sauna Hadovka",
			"icon_name": "wellness_a_relax",
			"recommended": false,
			"is_new": false
		}
	}, {
		"id": 1708,
		"type": "Feature",
		"geometry": {
			"type": "Point",
			"coordinates": [17.231453, 49.587409]
		},
		"properties": {
			"name": "Fitlady Club Olomouc",
			"icon_name": "skupinove_a_tanecni_lekce",
			"recommended": false,
			"is_new": false
		}
	}, {
		"id": 54,
		"type": "Feature",
		"geometry": {
			"type": "Point",
			"coordinates": [15.4550017, 50.1626189]
		},
		"properties": {
			"name": "Bonasus Gym",
			"icon_name": "mix_aktivit",
			"recommended": false,
			"is_new": false
		}
	}, {
		"id": 51,
		"type": "Feature",
		"geometry": {
			"type": "Point",
			"coordinates": [15.8768575, 49.2264797]
		},
		"properties": {
			"name": "Bowling U Kmotra",
			"icon_name": "sezonni_a_ostatni_aktivity",
			"recommended": false,
			"is_new": false
		}
	}, {
		"id": 1519,
		"type": "Feature",
		"geometry": {
			"type": "Point",
			"coordinates": [14.3916497, 50.4226211]
		},
		"properties": {
			"name": "Sportcentrum Horní Počaply",
			"icon_name": "mix_aktivit",
			"recommended": false,
			"is_new": false
		}
	}, {
		"id": 228,
		"type": "Feature",
		"geometry": {
			"type": "Point",
			"coordinates": [15.0497908, 50.7646681]
		},
		"properties": {
			"name": "Yogaholick - Liberec",
			"icon_name": "mix_aktivit",
			"recommended": false,
			"is_new": false
		}
	}, {
		"id": 620,
		"type": "Feature",
		"geometry": {
			"type": "Point",
			"coordinates": [15.177651, 50.740364]
		},
		"properties": {
			"name": "Hotel Břízky",
			"icon_name": "raketove_a_micove_sporty",
			"recommended": false,
			"is_new": false
		}
	}, {
		"id": 674,
		"type": "Feature",
		"geometry": {
			"type": "Point",
			"coordinates": [14.428718, 49.65211]
		},
		"properties": {
			"name": "PeVan Gym",
			"icon_name": "mix_aktivit",
			"recommended": false,
			"is_new": false
		}
	}, {
		"id": 26,
		"type": "Feature",
		"geometry": {
			"type": "Point",
			"coordinates": [18.3523303, 49.6856086]
		},
		"properties": {
			"name": "Fitpoint sportovně – relaxační zařízení Frýdek-Místek",
			"icon_name": "mix_aktivit",
			"recommended": false,
			"is_new": false
		}
	}, {
		"id": 28,
		"type": "Feature",
		"geometry": {
			"type": "Point",
			"coordinates": [15.8214667, 50.2135364]
		},
		"properties": {
			"name": "Joga Hradec Králové",
			"icon_name": "joga_a_zdravotni_cviceni",
			"recommended": false,
			"is_new": false
		}
	}, {
		"id": 29,
		"type": "Feature",
		"geometry": {
			"type": "Point",
			"coordinates": [14.3804497, 50.1643357]
		},
		"properties": {
			"name": "Via Vestra",
			"icon_name": "mix_aktivit",
			"recommended": false,
			"is_new": false
		}
	}, {
		"id": 32,
		"type": "Feature",
		"geometry": {
			"type": "Point",
			"coordinates": [17.1290878, 49.0146761]
		},
		"properties": {
			"name": "Fitness Kyjov",
			"icon_name": "posilovny_a_silove_treninky",
			"recommended": false,
			"is_new": false
		}
	}, {
		"id": 33,
		"type": "Feature",
		"geometry": {
			"type": "Point",
			"coordinates": [17.1766911, 49.0116547]
		},
		"properties": {
			"name": "Squash Centrum Kelčany",
			"icon_name": "raketove_a_micove_sporty",
			"recommended": false,
			"is_new": false
		}
	}, {
		"id": 36,
		"type": "Feature",
		"geometry": {
			"type": "Point",
			"coordinates": [16.5330775, 49.3006892]
		},
		"properties": {
			"name": "HANYOGA - jógové studio Kuřim",
			"icon_name": "joga_a_zdravotni_cviceni",
			"recommended": false,
			"is_new": false
		}
	}, {
		"id": 37,
		"type": "Feature",
		"geometry": {
			"type": "Point",
			"coordinates": [16.1557819, 49.9527039]
		},
		"properties": {
			"name": "TORO Gym",
			"icon_name": "posilovny_a_silove_treninky",
			"recommended": false,
			"is_new": false
		}
	}, {
		"id": 41,
		"type": "Feature",
		"geometry": {
			"type": "Point",
			"coordinates": [17.4336128, 49.0720933]
		},
		"properties": {
			"name": "My-Fitness",
			"icon_name": "posilovny_a_silove_treninky",
			"recommended": false,
			"is_new": false
		}
	}, {
		"id": 44,
		"type": "Feature",
		"geometry": {
			"type": "Point",
			"coordinates": [15.7527758, 50.0342194]
		},
		"properties": {
			"name": "Bowlingzone",
			"icon_name": "sezonni_a_ostatni_aktivity",
			"recommended": false,
			"is_new": false
		}
	}, {
		"id": 149,
		"type": "Feature",
		"geometry": {
			"type": "Point",
			"coordinates": [13.9811242, 49.8535628]
		},
		"properties": {
			"name": "KAT FITNESS",
			"icon_name": "skupinove_a_tanecni_lekce",
			"recommended": false,
			"is_new": false
		}
	}, {
		"id": 152,
		"type": "Feature",
		"geometry": {
			"type": "Point",
			"coordinates": [14.519435, 50.054925]
		},
		"properties": {
			"name": "OLYMPIA FITNESS HOSTIVAŘ",
			"icon_name": "posilovny_a_silove_treninky",
			"recommended": false,
			"is_new": false
		}
	}, {
		"id": 47,
		"type": "Feature",
		"geometry": {
			"type": "Point",
			"coordinates": [18.0149058, 49.5924928]
		},
		"properties": {
			"name": "AS Fitness",
			"icon_name": "mix_aktivit",
			"recommended": false,
			"is_new": false
		}
	}, {
		"id": 1711,
		"type": "Feature",
		"geometry": {
			"type": "Point",
			"coordinates": [17.994017, 49.470712]
		},
		"properties": {
			"name": "Golf Klub Valmez",
			"icon_name": "sezonni_a_ostatni_aktivity",
			"recommended": false,
			"is_new": false
		}
	}, {
		"id": 1832,
		"type": "Feature",
		"geometry": {
			"type": "Point",
			"coordinates": [13.2647992, 49.4018669]
		},
		"properties": {
			"name": "Cirkus - dětské indoorové hřiště",
			"icon_name": "rodice_s_detmi",
			"recommended": false,
			"is_new": false
		}
	}, {
		"id": 1610,
		"type": "Feature",
		"geometry": {
			"type": "Point",
			"coordinates": [16.525872, 48.979328]
		},
		"properties": {
			"name": "Sportovní hala Pohořelice",
			"icon_name": "posilovny_a_silove_treninky",
			"recommended": false,
			"is_new": false
		}
	}, {
		"id": 2055,
		"type": "Feature",
		"geometry": {
			"type": "Point",
			"coordinates": [16.592445, 49.19817]
		},
		"properties": {
			"name": "VUT Gym",
			"icon_name": "mix_aktivit",
			"recommended": false,
			"is_new": false
		}
	}, {
		"id": 49,
		"type": "Feature",
		"geometry": {
			"type": "Point",
			"coordinates": [14.8535656, 50.0649269]
		},
		"properties": {
			"name": "TJ Slavoj Český Brod",
			"icon_name": "raketove_a_micove_sporty",
			"recommended": false,
			"is_new": false
		}
	}, {
		"id": 207,
		"type": "Feature",
		"geometry": {
			"type": "Point",
			"coordinates": [16.6563547, 49.3516528]
		},
		"properties": {
			"name": "Tabata Killers",
			"icon_name": "skupinove_a_tanecni_lekce",
			"recommended": false,
			"is_new": false
		}
	}, {
		"id": 50,
		"type": "Feature",
		"geometry": {
			"type": "Point",
			"coordinates": [14.1591306, 49.3136089]
		},
		"properties": {
			"name": "FOR BODY Studio",
			"icon_name": "mix_aktivit",
			"recommended": false,
			"is_new": false
		}
	}, {
		"id": 52,
		"type": "Feature",
		"geometry": {
			"type": "Point",
			"coordinates": [14.355865, 49.979295]
		},
		"properties": {
			"name": "Fit-Line Centrum",
			"icon_name": "posilovny_a_silove_treninky",
			"recommended": false,
			"is_new": false
		}
	}, {
		"id": 55,
		"type": "Feature",
		"geometry": {
			"type": "Point",
			"coordinates": [15.8346878, 50.1883703]
		},
		"properties": {
			"name": "SPORTPARK HIT",
			"icon_name": "raketove_a_micove_sporty",
			"recommended": false,
			"is_new": false
		}
	}, {
		"id": 56,
		"type": "Feature",
		"geometry": {
			"type": "Point",
			"coordinates": [14.2598358, 50.4313617]
		},
		"properties": {
			"name": "Krytý plavecký bazén Roudnice nad Labem",
			"icon_name": "bazeny_a_vodni_sporty",
			"recommended": false,
			"is_new": false
		}
	}, {
		"id": 57,
		"type": "Feature",
		"geometry": {
			"type": "Point",
			"coordinates": [14.4751747, 50.3514519]
		},
		"properties": {
			"name": "Overcome gym",
			"icon_name": "mix_aktivit",
			"recommended": false,
			"is_new": false
		}
	}, {
		"id": 79,
		"type": "Feature",
		"geometry": {
			"type": "Point",
			"coordinates": [15.8064753, 49.69551]
		},
		"properties": {
			"name": "Fitko Ždírec nad Doubravou - posilovna",
			"icon_name": "mix_aktivit",
			"recommended": false,
			"is_new": false
		}
	}, {
		"id": 1775,
		"type": "Feature",
		"geometry": {
			"type": "Point",
			"coordinates": [15.1017761, 50.7452192]
		},
		"properties": {
			"name": "Koupaliště SLUNÍČKO",
			"icon_name": "bazeny_a_vodni_sporty",
			"recommended": false,
			"is_new": false
		}
	}, {
		"id": 1837,
		"type": "Feature",
		"geometry": {
			"type": "Point",
			"coordinates": [18.2278175, 49.8530578]
		},
		"properties": {
			"name": "Golf Park Lhotka",
			"icon_name": "sezonni_a_ostatni_aktivity",
			"recommended": false,
			"is_new": false
		}
	}, {
		"id": 688,
		"type": "Feature",
		"geometry": {
			"type": "Point",
			"coordinates": [18.011284, 49.753529]
		},
		"properties": {
			"name": "FITCAFFÉ – SPORTOVNÍ CLUB HONZY JAROŠE",
			"icon_name": "mix_aktivit",
			"recommended": false,
			"is_new": false
		}
	}, {
		"id": 35,
		"type": "Feature",
		"geometry": {
			"type": "Point",
			"coordinates": [16.8899856, 48.7546764]
		},
		"properties": {
			"name": "Potírna",
			"icon_name": "mix_aktivit",
			"recommended": false,
			"is_new": false
		}
	}, {
		"id": 151,
		"type": "Feature",
		"geometry": {
			"type": "Point",
			"coordinates": [14.3920872, 50.0594003]
		},
		"properties": {
			"name": "Studio Allure",
			"icon_name": "skupinove_a_tanecni_lekce",
			"recommended": false,
			"is_new": false
		}
	}, {
		"id": 431,
		"type": "Feature",
		"geometry": {
			"type": "Point",
			"coordinates": [14.3074567, 50.2435014]
		},
		"properties": {
			"name": "Sauna Alma Kralupy",
			"icon_name": "wellness_a_relax",
			"recommended": false,
			"is_new": false
		}
	}, {
		"id": 621,
		"type": "Feature",
		"geometry": {
			"type": "Point",
			"coordinates": [16.632446699999946, 49.195226]
		},
		"properties": {
			"name": "SportCentrum Kuklenská",
			"icon_name": "mix_aktivit",
			"recommended": false,
			"is_new": false
		}
	}, {
		"id": 154,
		"type": "Feature",
		"geometry": {
			"type": "Point",
			"coordinates": [14.4135175, 50.0482039]
		},
		"properties": {
			"name": "Žluté lázně",
			"icon_name": "mix_aktivit",
			"recommended": false,
			"is_new": false
		}
	}, {
		"id": 1995,
		"type": "Feature",
		"geometry": {
			"type": "Point",
			"coordinates": [14.483635, 50.0094956]
		},
		"properties": {
			"name": "OTC - Zámecký park",
			"icon_name": "skupinove_a_tanecni_lekce",
			"recommended": false,
			"is_new": false
		}
	}, {
		"id": 23,
		"type": "Feature",
		"geometry": {
			"type": "Point",
			"coordinates": [17.8942267, 49.9356675]
		},
		"properties": {
			"name": "Solná jeskyně Opava",
			"icon_name": "wellness_a_relax",
			"recommended": false,
			"is_new": false
		}
	}, {
		"id": 60,
		"type": "Feature",
		"geometry": {
			"type": "Point",
			"coordinates": [13.3979241, 49.7369271]
		},
		"properties": {
			"name": "Fitness city",
			"icon_name": "mix_aktivit",
			"recommended": false,
			"is_new": false
		}
	}, {
		"id": 63,
		"type": "Feature",
		"geometry": {
			"type": "Point",
			"coordinates": [16.759987, 49.341973]
		},
		"properties": {
			"name": "Posilovna Jedovnice",
			"icon_name": "posilovny_a_silove_treninky",
			"recommended": false,
			"is_new": false
		}
	},